{"version": 0.6, "generator": "Overpass API 0.7.57 93a4d346", "osm3s": {"timestamp_osm_base": "2022-05-12T16:23:39Z", "copyright": "The data included in this document is from www.openstreetmap.org. The data is made available under ODbL."}, "elements": [{"type": "node", "id": 300241213, "lat": 39.7976912, "lon": 116.4975497}, {"type": "node", "id": 300241214, "lat": 39.7975105, "lon": 116.4971973}, {"type": "node", "id": 300241215, "lat": 39.7993949, "lon": 116.4956888}, {"type": "node", "id": 300241216, "lat": 39.799932, "lon": 116.4967975}, {"type": "node", "id": 300241217, "lat": 39.7982588, "lon": 116.4981649}, {"type": "node", "id": 300241218, "lat": 39.7980301, "lon": 116.498118}, {"type": "node", "id": 2426743549, "lat": 39.7994268, "lon": 116.4734312, "tags": {"amenity": "restaurant", "name": "\u534e\u4ea6\u56fd\u9645\u996d\u5e97", "source": "Bing", "tourism": "hotel"}}, {"type": "node", "id": 2452406293, "lat": 39.780183, "lon": 116.5164832, "tags": {"name": "\u6c49\u5ead\u8fde\u9501\u9152\u5e97", "source": "Bing", "tourism": "hotel"}}, {"type": "node", "id": 2467476009, "lat": 39.7978199, "lon": 116.4977024}, {"type": "node", "id": 2484653120, "lat": 39.7853728, "lon": 116.51016, "tags": {"name": "\u5317\u4eac\u5174\u57fa\u94c2\u5c13\u66fc\u996d\u5e97", "tourism": "hotel"}}, {"type": "node", "id": 2489355265, "lat": 39.8005994, "lon": 116.4744513, "tags": {"name": "\u661f\u7a7a\u5047\u65e5\u9152\u5e97", "tourism": "hotel"}}, {"type": "node", "id": 2496303748, "lat": 39.7951035, "lon": 116.482843, "tags": {"addr:full": "\u5317\u4eac\u7ecf\u6d4e\u6280\u672f\u5f00\u53d1\u533a\u5929\u5b9d\u5317\u88571\u53f7\uff08\u4ea6\u5e84\u5b9e\u9a8c\u5b66\u6821\u5bf9\u9762\uff09", "branch": "\u5317\u4eac\u4ea6\u5e84\u5929\u5b9d\u5e97", "brand": "\u901f8\u9152\u5e97", "brand:en": "Super 8", "brand:wikidata": "Q5364003", "brand:wikipedia": "zh:\u901f8\u9152\u5e97", "brand:zh": "\u901f8\u9152\u5e97", "name": "\u901f8\u9152\u5e97", "name:en": "Super 8", "ref": "68", "tourism": "motel", "website": "http://www.super8.com.cn"}}, {"type": "node", "id": 2496303750, "lat": 39.789462, "lon": 116.4918137, "tags": {"name": "\u8363\u4eac\u5bbe\u9986", "tourism": "hotel"}}, {"type": "node", "id": 2496303758, "lat": 39.7946885, "lon": 116.5028858, "tags": {"name": "\u4e30\u5927\u56fd\u9645\u5927\u9152\u5e97", "tourism": "hotel"}}, {"type": "node", "id": 2511333657, "lat": 39.8000811, "lon": 116.4929103, "tags": {"name": "\u5bb6\u56ed\u5047\u65e5\u9152\u5e97", "name:en": "Home Holiday Hotel", "phone": "+86-010-67876799", "tourism": "hotel"}}, {"type": "node", "id": 2511333665, "lat": 39.7999324, "lon": 116.4925988, "tags": {"brand": "7\u5929\u9152\u5e97", "brand:en": "7 Days Inn", "brand:wikidata": "Q4643844", "brand:wikipedia": "en:7 Days Inn", "brand:zh": "7\u5929\u9152\u5e97", "name": "7\u5929\u9152\u5e97", "name:en": "7 Days Inn", "name:zh": "7\u5929\u8fde\u9501\u9152\u5e97", "tourism": "hotel"}}, {"type": "node", "id": 2515010899, "lat": 39.7633563, "lon": 116.5022635, "tags": {"name": "\u6069\u6cfd\u56ed\u5bbe\u9986", "phone": "+86-010-67850505", "tourism": "hotel"}}, {"type": "node", "id": 2515011143, "lat": 39.8001619, "lon": 116.4840031, "tags": {"name": "\u5bcc\u9a7f\u5546\u65c5\u9152\u5e97", "tourism": "hotel"}}, {"type": "node", "id": 2523345790, "lat": 39.7913086, "lon": 116.4858913, "tags": {"name": "\u72ee\u57ce\u9152\u5e97", "tourism": "hotel"}}, {"type": "node", "id": 2610693625, "lat": 39.7837239, "lon": 116.4930797, "tags": {"name": "\u4e2d\u6c5f\u5546\u65c5\u9152\u5e97", "tourism": "hotel"}}, {"type": "node", "id": 2636405879, "lat": 39.7829653, "lon": 116.5159106, "tags": {"name": "\u5bcc\u5174\u65f6\u5c1a\u5bbe\u9986", "tourism": "hotel"}}, {"type": "node", "id": 4132082745, "lat": 39.7901479, "lon": 116.4999959}, {"type": "node", "id": 4132082746, "lat": 39.7902034, "lon": 116.4996638}, {"type": "node", "id": 4132082748, "lat": 39.7907822, "lon": 116.5013218}, {"type": "node", "id": 4132082751, "lat": 39.791782, "lon": 116.4983464}, {"type": "node", "id": 4132082753, "lat": 39.7925234, "lon": 116.4999154}, {"type": "node", "id": 4769095730, "lat": 39.8357911, "lon": 116.6973921, "tags": {"addr:full": "\u5317\u4eac\u5e02\u901a\u5dde\u533a\u5f20\u5bb6\u6e7e\u9547\u7965\u548c\u4e50\u56ed\u5f20\u91c7\u8def\u4e1c\u4fa731\u53f72\u5c42\u53ca1\u5c42\u5927\u5802", "branch": "\u5317\u4eac\u901a\u5dde\u5f20\u5bb6\u6e7e\u5f20\u91c7\u8def\u5e97\uff08\u5185\u5bbe\uff09", "brand": "\u901f8\u9152\u5e97", "brand:en": "Super 8", "brand:wikidata": "Q5364003", "brand:wikipedia": "zh:\u901f8\u9152\u5e97", "brand:zh": "\u901f8\u9152\u5e97", "name": "\u901f8\u9152\u5e97", "name:en": "Super 8", "ref": "3600", "tourism": "motel", "website": "http://www.super8.com.cn"}}, {"type": "node", "id": 4769095734, "lat": 39.8000873, "lon": 116.4923921, "tags": {"addr:full": "\u5317\u4eac\u5e02\u4ea6\u5e84\u7ecf\u6d4e\u6280\u672f\u5f00\u53d1\u533a\u5929\u534e\u5317\u88575\u53f7", "brand": "\u901f8\u9152\u5e97", "brand:en": "Super 8", "brand:wikidata": "Q5364003", "brand:wikipedia": "zh:\u901f8\u9152\u5e97", "brand:zh": "\u901f8\u9152\u5e97", "name": "\u901f8\u9152\u5e97", "name:en": "Super 8", "name:zh": "\u901f8\u9152\u5e97", "ref": "485", "tourism": "hotel", "website": "http://www.super8.com.cn"}}, {"type": "node", "id": 4769095754, "lat": 39.7950867, "lon": 116.4827921, "tags": {"addr:full": "\u5317\u4eac\u7ecf\u6d4e\u6280\u672f\u5f00\u53d1\u533a\u5929\u5b9d\u5317\u88571\u53f7\uff08\u4ea6\u5e84\u5b9e\u9a8c\u5b66\u6821\u5bf9\u9762\uff09", "branch": "\u5317\u4eac\u4ea6\u5e84\u5929\u5b9d\u5e97", "brand": "\u901f8\u9152\u5e97", "brand:en": "Super 8", "brand:wikidata": "Q5364003", "brand:wikipedia": "zh:\u901f8\u9152\u5e97", "brand:zh": "\u901f8\u9152\u5e97", "name": "\u901f8\u9152\u5e97", "name:en": "Super 8", "ref": "68", "tourism": "motel", "website": "http://www.super8.com.cn"}}, {"type": "node", "id": 4769095765, "lat": 39.8362912, "lon": 116.4637921, "tags": {"addr:full": "\u5317\u4eac\u5e02\u671d\u9633\u533a\u5341\u516b\u91cc\u5e97\u5357\u6865\uff08\u65c5\u6e38\u6c7d\u8f66\u516c\u53f8\uff09", "branch": "\u5317\u4eac\u5341\u516b\u91cc\u5e97\u5357\u6865\u5e97(\u5185\u5bbe)", "brand": "\u901f8\u9152\u5e97", "brand:en": "Super 8", "brand:wikidata": "Q5364003", "brand:wikipedia": "zh:\u901f8\u9152\u5e97", "brand:zh": "\u901f8\u9152\u5e97", "name": "\u901f8\u9152\u5e97", "name:en": "Super 8", "ref": "341", "tourism": "motel", "website": "http://www.super8.com.cn"}}, {"type": "node", "id": 4769095785, "lat": 39.7516891, "lon": 116.5454923, "tags": {"addr:full": "\u5317\u4eac\u5e02\u901a\u5dde\u533a\u9a6c\u9a79\u6865\u5927\u885788\u53f7", "branch": "\u5317\u4eac\u901a\u5dde\u9a6c\u9a79\u6865\u5546\u4e1a\u8857\u5e97\uff08\u5185\u5bbe\uff09", "brand": "\u901f8\u9152\u5e97", "brand:en": "Super 8", "brand:wikidata": "Q5364003", "brand:wikipedia": "zh:\u901f8\u9152\u5e97", "brand:zh": "\u901f8\u9152\u5e97", "name": "\u901f8\u9152\u5e97", "name:en": "Super 8", "ref": "3608", "tourism": "motel", "website": "http://www.super8.com.cn"}}, {"type": "node", "id": 4769095790, "lat": 39.7501639, "lon": 116.6475481, "tags": {"addr:full": "\u5317\u4eac\u5e02\u901a\u5dde\u533a\u9a6c\u9a79\u6865\u9547\u5927\u675c\u793e\u4f9b\u9500\u793e1-3\u5c42", "branch": "\u5317\u4eac\u901a\u5dde\u9a6c\u9a79\u6865\u5927\u675c\u793e\u5e97(\u5185\u5bbe)", "brand": "\u901f8\u9152\u5e97", "brand:en": "Super 8", "brand:wikidata": "Q5364003", "brand:wikipedia": "zh:\u901f8\u9152\u5e97", "brand:zh": "\u901f8\u9152\u5e97", "name": "\u901f8\u9152\u5e97", "name:en": "Super 8", "ref": "3676", "tourism": "motel", "website": "http://www.super8.com.cn"}}, {"type": "node", "id": 4769095818, "lat": 39.7258793, "lon": 116.5509921, "tags": {"addr:full": "\u5317\u4eac\u5e02\u901a\u5dde\u533a\u9a6c\u9a79\u6865\u5c0f\u5f20\u6e7e105\u53f7\uff08\u5c0f\u5f20\u6e7e\u5c0f\u5b66\u65c1\uff09", "branch": "\u5317\u4eac\u9a6c\u9a79\u6865\u8054\u4e1cU\u8c37\u5e97(\u5185\u5bbe)", "brand": "\u901f8\u9152\u5e97", "brand:en": "Super 8", "brand:wikidata": "Q5364003", "brand:wikipedia": "zh:\u901f8\u9152\u5e97", "brand:zh": "\u901f8\u9152\u5e97", "name": "\u901f8\u9152\u5e97", "name:en": "Super 8", "ref": "3659", "tourism": "motel", "website": "http://www.super8.com.cn"}}, {"type": "node", "id": 4769096336, "lat": 39.8112885, "lon": 116.5611921, "tags": {"addr:full": "\u5317\u4eac\u5e02\u901a\u5dde\u533a\u5149\u673a\u7535\u4ea7\u4e1a\u57fa\u5730\u5174\u5149\u4e94\u88572\u53f7", "branch": "\u5317\u4eac\u73af\u6e24\u6d77\u603b\u90e8\u57fa\u5730\u4e00\u5e97\uff08\u6b21\u6e20&\u4ea6\u5e84\uff09", "brand": "\u901f8\u9152\u5e97", "brand:en": "Super 8", "brand:wikidata": "Q5364003", "brand:wikipedia": "zh:\u901f8\u9152\u5e97", "brand:zh": "\u901f8\u9152\u5e97", "name": "\u901f8\u9152\u5e97", "name:en": "Super 8", "ref": "777", "tourism": "motel", "website": "http://www.super8.com.cn"}}, {"type": "node", "id": 4769096339, "lat": 39.7960869, "lon": 116.5587921, "tags": {"addr:full": "\u5317\u4eac\u4ea6\u5e84\u5f00\u53d1\u533a\u79d1\u521b\u4e5d\u8857\u5b9a\u6d77\u56ed\u4e09\u91cc9\u53f7\u697c\uff08\u79d1\u521b\u4e5d\u8857\u4e0e\u7ecf\u6d77\u4e03\u8def\u4ea4\u6c47\u5904\uff09", "branch": "\u5317\u4eac\u4ea6\u5e84\u79d1\u521b\u4e5d\u8857\u5e97\uff08\u5185\u5bbe\uff09", "brand": "\u901f8\u9152\u5e97", "brand:en": "Super 8", "brand:wikidata": "Q5364003", "brand:wikipedia": "zh:\u901f8\u9152\u5e97", "brand:zh": "\u901f8\u9152\u5e97", "name": "\u901f8\u9152\u5e97", "name:en": "Super 8", "ref": "770", "tourism": "motel", "website": "http://www.super8.com.cn", "wheelchair": "no"}}, {"type": "node", "id": 4769096342, "lat": 39.8014088, "lon": 116.5648488, "tags": {"addr:full": "\u5317\u4eac\u5e02\u901a\u5dde\u533a\u53f0\u6e56\u9547\u6b21\u4e8c\u6751\u53576\u53f7\u7f8e\u8fbe\u5927\u53a6", "branch": "\u5317\u4eac\u6b21\u6e20\u5e97\uff08\u5185\u5bbe\uff09", "brand": "\u901f8\u9152\u5e97", "brand:en": "Super 8", "brand:wikidata": "Q5364003", "brand:wikipedia": "zh:\u901f8\u9152\u5e97", "brand:zh": "\u901f8\u9152\u5e97", "name": "\u901f8\u9152\u5e97", "name:en": "Super 8", "ref": "594", "tourism": "motel", "website": "http://www.super8.com.cn", "wheelchair": "limited"}}, {"type": "node", "id": 5426769025, "lat": 39.7909825, "lon": 116.4935699, "tags": {"name": "\u5bb6", "name:en": "Home", "tourism": "apartment"}}, {"type": "node", "id": 6528312385, "lat": 39.7984733, "lon": 116.4941992, "tags": {"name:en": "Fengda International Hotel", "tourism": "hotel"}}, {"type": "node", "id": 8587896434, "lat": 39.7794468, "lon": 116.5138587, "tags": {"tourism": "artwork"}}, {"type": "node", "id": 9269021090, "lat": 39.8414933, "lon": 116.50175}, {"type": "node", "id": 9269021091, "lat": 39.8408689, "lon": 116.5016954}, {"type": "node", "id": 9269021092, "lat": 39.8408362, "lon": 116.5022962}, {"type": "node", "id": 9269021093, "lat": 39.8414607, "lon": 116.5023326}, {"type": "node", "id": 9352874376, "lat": 39.7951619, "lon": 116.4969741, "tags": {"artwork_type": "sculpture", "tourism": "artwork"}}, {"type": "node", "id": 9452608874, "lat": 39.7848067, "lon": 116.5767631, "tags": {"name": "\u4e9a\u6735\u9152\u5e97", "tourism": "hotel"}}, {"type": "node", "id": 9631366652, "lat": 39.7680517, "lon": 116.4660791, "tags": {"name": "\u6731\u96c0\u8fce\u5bbe", "tourism": "attraction"}}, {"type": "node", "id": 9631366653, "lat": 39.7686127, "lon": 116.4607813, "tags": {"name": "\u94f6\u674f\u542c\u6d9b", "tourism": "attraction"}}, {"type": "way", "id": 27349642, "nodes": [300241213, 300241214, 300241215, 300241216, 300241217, 300241218, 2467476009, 300241213], "tags": {"name": "\u9526\u6c5f\u5bcc\u56ed\u5927\u9152\u5e97", "name:en": "JinJiang Fuyuan", "tourism": "hotel"}}, {"type": "way", "id": 411575131, "nodes": [4132082751, 4132082746, 4132082745, 4132082748, 4132082753, 4132082751], "tags": {"tourism": "hotel"}}, {"type": "way", "id": 1004615340, "nodes": [9269021090, 9269021091, 9269021092, 9269021093, 9269021090], "tags": {"building": "yes", "tourism": "hotel"}}]}