{"version": 0.6, "generator": "Overpass API 0.7.57 93a4d346", "osm3s": {"timestamp_osm_base": "2022-05-11T12:33:06Z", "copyright": "The data included in this document is from www.openstreetmap.org. The data is made available under ODbL."}, "elements": [{"type": "node", "id": 27486601, "lat": 39.9093259, "lon": 116.3287274, "tags": {"bus": "yes", "name": "\u6728\u6a28\u5730\u5317", "name:zh": "\u6728\u6a28\u5730\u5317", "public_transport": "stop_position"}}, {"type": "node", "id": 31018014, "lat": 39.9479679, "lon": 116.4144161, "tags": {"bus": "yes", "name": "\u96cd\u548c\u5bab\u6865\u4e1c", "name:zh": "\u96cd\u548c\u5bab\u6865\u4e1c", "public_transport": "stop_position"}}, {"type": "node", "id": 32061866, "lat": 39.8979889, "lon": 116.3900912, "tags": {"bus": "yes", "name": "\u524d\u95e8", "name:zh": "\u524d\u95e8", "public_transport": "stop_position"}}, {"type": "node", "id": 32061867, "lat": 39.8974887, "lon": 116.3912113, "tags": {"bus": "yes", "name": "\u524d\u95e8", "name:zh": "\u524d\u95e8", "public_transport": "stop_position"}}, {"type": "node", "id": 32061954, "lat": 39.8976248, "lon": 116.3924719, "tags": {"bus": "yes", "name": "\u524d\u95e8", "name:zh": "\u524d\u95e8", "public_transport": "stop_position"}}, {"type": "node", "id": 32061955, "lat": 39.8977215, "lon": 116.3927287, "tags": {"bus": "yes", "name": "\u524d\u95e8", "name:zh": "\u524d\u95e8", "public_transport": "stop_position"}}, {"type": "node", "id": 32618803, "lat": 39.9402322, "lon": 116.3854709, "tags": {"bus": "yes", "highway": "bus_stop", "name": "\u94f8\u949f\u5382", "name:zh": "\u94f8\u949f\u5382", "public_transport": "platform"}}, {"type": "node", "id": 32618809, "lat": 39.9431285, "lon": 116.3814901, "tags": {"bus": "yes", "highway": "bus_stop", "name": "\u5fb7\u5185\u7518\u6c34\u6865", "name:zh": "\u5fb7\u5185\u7518\u6c34\u6865", "public_transport": "platform"}}, {"type": "node", "id": 35722742, "lat": 39.9154269, "lon": 116.4627154, "tags": {"bus": "yes", "name": "\u5c0f\u5e84\u8def\u53e3\u897f", "name:zh": "\u5c0f\u5e84\u8def\u53e3\u897f", "public_transport": "stop_position"}}, {"type": "node", "id": 36704892, "lat": 39.9072674, "lon": 116.4593884, "tags": {"bus": "yes", "name": "\u5927\u5317\u7a91\u4e1c", "name:zh": "\u5927\u5317\u7a91\u4e1c", "public_transport": "stop_position"}}, {"type": "node", "id": 76457477, "lat": 39.9218024, "lon": 116.4552006, "tags": {"highway": "traffic_signals", "name": "\u671d\u9633\u5317\u8def\u53e3", "traffic_signals:direction": "forward"}}, {"type": "node", "id": 76457686, "lat": 39.9228497, "lon": 116.3980159, "tags": {"bus": "yes", "name": "\u6c99\u6ee9\u8def\u53e3\u897f", "name:en": "Sandy Beach Intersection West", "name:zh": "\u6c99\u6ee9\u8def\u53e3\u897f", "public_transport": "stop_position"}}, {"type": "node", "id": 77746350, "lat": 39.8919675, "lon": 116.4163005, "tags": {"bus": "yes", "name": "\u6984\u6746\u5e02", "name:zh": "\u6984\u6746\u5e02", "public_transport": "stop_position"}}, {"type": "node", "id": 79250977, "lat": 39.9011986, "lon": 116.4786488, "tags": {"name": "\u5317\u4eac\u4e1c", "name:en": "Beijingdong", "name:zh": "\u5317\u4eac\u4e1c", "public_transport": "stop_position", "railway": "stop", "train": "yes"}}, {"type": "node", "id": 124205138, "lat": 39.8499954, "lon": 116.2953417, "tags": {"addr:district": "\u4e30\u53f0\u533a", "addr:housenumber": "4\u53f7", "addr:province": "\u5317\u4eac\u5e02", "addr:street": "\u6b63\u9633\u5927\u8857", "alt_name": "\u5317\u4eac\u4e30\u53f0\u706b\u8f66\u7ad9", "construction": "yes", "name": "\u5317\u4eac\u4e30\u53f0", "name:en": "Beijing Fengtai", "name:zh": "\u5317\u4eac\u4e30\u53f0", "note": "\u5317\u4eac\u4e30\u53f0\u666e\u901f\u573a\u4eac\u6caa\u7ebf K18+918\u6c38\u4e30\u7ebf K9+414\u5317\u4eac\u4e30\u53f0\u4eac\u5e7f\u573a\u4eac\u5e7f\u9ad8\u94c1 K2+980", "official_name": "\u5317\u4eac\u4e30\u53f0\u7ad9", "official_name:en": "Beijing Fengtai Railway Station", "old_name": "\u4e30\u53f0;\u4e30\u53f0\u7ad9;\u4e30\u53f0\u706b\u8f66\u7ad9", "old_name:en": "Fengtai;Fengtai Railway Station", "old_name:zh": "\u4e30\u53f0", "public_transport": "station", "railway": "station", "railway:position": "18.918", "railway:ref": "10025", "train": "yes"}}, {"type": "node", "id": 127263177, "lat": 39.9693854, "lon": 116.401176, "tags": {"bus": "yes", "name": "\u5b89\u8d1e\u6865\u5317", "name:zh": "\u5b89\u8d1e\u6865\u5317", "public_transport": "stop_position"}}, {"type": "node", "id": 237537322, "lat": 39.9415029, "lon": 116.3662486, "tags": {"bus": "yes", "name": "\u65b0\u8857\u53e3\u5317", "name:zh": "\u65b0\u8857\u53e3\u5317", "public_transport": "stop_position"}}, {"type": "node", "id": 239453044, "lat": 39.992475, "lon": 116.2984459, "tags": {"bus": "yes", "highway": "bus_stop", "name": "\u5317\u4eac\u5927\u5b66\u897f\u95e8", "public_transport": "stop_position"}}, {"type": "node", "id": 240421944, "lat": 39.9723836, "lon": 116.3124928, "tags": {"bus": "yes", "highway": "bus_stop", "name": "\u6d77\u6dc0\u9ec4\u5e84\u5357", "public_transport": "stop_position"}}, {"type": "node", "id": 245106232, "lat": 39.8869615, "lon": 116.409423, "tags": {"bus": "yes", "name": "\u7ea2\u6865\u8def\u53e3\u897f", "name:zh": "\u7ea2\u6865\u8def\u53e3\u897f", "public_transport": "stop_position"}}, {"type": "node", "id": 245130485, "lat": 39.9962847, "lon": 116.3092438, "tags": {"bus": "yes", "highway": "bus_stop", "name": "\u6e05\u534e\u5927\u5b66\u897f\u95e8", "public_transport": "stop_position"}}, {"type": "node", "id": 245130636, "lat": 39.9985515, "lon": 116.3065539, "tags": {"bus": "yes", "highway": "bus_stop", "name": "\u5706\u660e\u56ed\u5357\u95e8", "public_transport": "stop_position"}}, {"type": "node", "id": 245134491, "lat": 39.9915734, "lon": 116.331724, "tags": {"name": "\u4e94\u9053\u53e3", "name:en": "Wudaokou", "name:zh": "\u4e94\u9053\u53e3", "public_transport": "stop_position", "railway": "stop", "ref": "1304", "subway": "yes"}}, {"type": "node", "id": 245142590, "lat": 39.9565729, "lon": 116.4259717, "tags": {"bus": "yes", "highway": "bus_stop", "name": "\u57ce\u94c1\u67f3\u82b3\u7ad9", "public_transport": "platform"}}, {"type": "node", "id": 245143068, "lat": 39.9567995, "lon": 116.4265959, "tags": {"name": "\u67f3\u82b3", "name:en": "Liufang", "name:zh": "\u67f3\u82b3", "public_transport": "stop_position", "railway": "stop", "subway": "yes"}}, {"type": "node", "id": 245154331, "lat": 39.9762621, "lon": 116.4296755, "tags": {"name": "\u828d\u836f\u5c45", "name:en": "Shaoyaoju", "name:zh": "\u828d\u836f\u5c45", "public_transport": "stop_position", "railway": "stop", "subway": "yes"}}, {"type": "node", "id": 245154338, "lat": 39.9669836, "lon": 116.4256087, "tags": {"name": "\u5149\u7199\u95e8", "name:en": "Guangximen", "name:zh": "\u5149\u7199\u95e8", "public_transport": "stop_position", "railway": "stop", "subway": "yes"}}, {"type": "node", "id": 250040192, "lat": 39.857419, "lon": 116.4387806, "tags": {"bus": "yes", "name": "\u65b9\u5e84\u6865\u4e1c", "name:zh": "\u65b9\u5e84\u6865\u4e1c", "public_transport": "stop_position"}}, {"type": "node", "id": 252853520, "lat": 39.9154849, "lon": 116.3582849, "tags": {"bus": "yes", "name": "\u4e30\u76db\u80e1\u540c", "name:zh": "\u4e30\u76db\u80e1\u540c", "public_transport": "stop_position"}}, {"type": "node", "id": 262773668, "lat": 39.9001323, "lon": 116.4138369, "tags": {"bus": "yes", "name": "\u5317\u4eac\u7ad9\u897f\u8857", "name:zh": "\u5317\u4eac\u7ad9\u897f\u8857", "public_transport": "stop_position"}}, {"type": "node", "id": 262780850, "lat": 39.9936105, "lon": 116.4410997, "tags": {"name": "\u671b\u4eac\u897f", "name:en": "Wangjing West", "name:zh": "\u671b\u4eac\u897f", "public_transport": "stop_position", "railway": "stop", "subway": "yes"}}, {"type": "node", "id": 264602869, "lat": 39.9416225, "lon": 116.4285694, "tags": {"name": "\u4e1c\u76f4\u95e8", "name:en": "Dongzhimen", "name:zh": "\u4e1c\u76f4\u95e8", "public_transport": "stop_position", "railway": "stop", "subway": "yes"}}, {"type": "node", "id": 264826135, "lat": 39.9370298, "lon": 116.3463513, "tags": {"bus": "yes", "name": "\u897f\u76f4\u95e8\u516c\u4ea4\u573a\u7ad9", "name:zh": "\u897f\u76f4\u95e8\u516c\u4ea4\u573a\u7ad9", "public_transport": "stop_position"}}, {"type": "node", "id": 264827526, "lat": 39.9482665, "lon": 116.3741555, "tags": {"bus": "yes", "name": "\u5fb7\u80dc\u95e8", "name:zh": "\u5fb7\u80dc\u95e8", "public_transport": "stop_position"}}, {"type": "node", "id": 265711187, "lat": 39.965274, "lon": 116.3390282, "tags": {"name": "\u5927\u949f\u5bfa", "name:en": "Dazhongsi", "name:zh": "\u5927\u949f\u5bfa", "public_transport": "stop_position", "railway": "stop", "subway": "yes"}}, {"type": "node", "id": 265711193, "lat": 39.9751524, "lon": 116.333902, "tags": {"name": "\u77e5\u6625\u8def", "name:en": "Zhichunlu", "name:zh": "\u77e5\u6625\u8def", "public_transport": "stop_position", "railway": "stop", "subway": "yes"}}, {"type": "node", "id": 265838775, "lat": 40.0695495, "lon": 116.3131919, "tags": {"name": "\u9f99\u6cfd", "name:en": "Longze", "name:ru": "\u041b\u043e\u043d\u0433\u0437\u0435", "name:zh": "\u9f99\u6cfd", "public_transport": "stop_position", "railway": "stop", "subway": "yes"}}, {"type": "node", "id": 265839508, "lat": 40.0691493, "lon": 116.3545723, "tags": {"name": "\u970d\u8425", "name:en": "Huoying", "name:ru": "\u0425\u0443\u043e\u0438\u043d", "name:zh": "\u970d\u8425", "public_transport": "stop_position", "railway": "stop", "subway": "yes"}}, {"type": "node", "id": 265839520, "lat": 40.0514059, "lon": 116.4050304, "tags": {"name": "\u7acb\u6c34\u6865", "name:en": "Lishuiqiao", "name:zh": "\u7acb\u6c34\u6865", "public_transport": "stop_position", "railway": "stop", "subway": "yes"}}, {"type": "node", "id": 268389107, "lat": 40.0015038, "lon": 116.2689234, "tags": {"bus": "yes", "highway": "bus_stop", "name": "\u9890\u548c\u56ed\u5317\u5bab\u95e8", "public_transport": "stop_position"}}, {"type": "node", "id": 268389419, "lat": 39.9675697, "lon": 116.2825008, "tags": {"bus": "yes", "highway": "bus_stop", "name": "\u7a7a\u519b\u6307\u6325\u5b66\u9662", "public_transport": "stop_position"}}, {"type": "node", "id": 268389450, "lat": 39.99664, "lon": 116.2774825, "tags": {"bus": "yes", "highway": "bus_stop", "name": "\u9890\u548c\u56ed", "public_transport": "stop_position"}}, {"type": "node", "id": 268389725, "lat": 40.0121981, "lon": 116.3222414, "tags": {"bus": "yes", "highway": "bus_stop", "name": "\u5927\u77f3\u6865\u5317", "public_transport": "stop_position"}}, {"type": "node", "id": 269422417, "lat": 40.066832, "lon": 116.208573, "tags": {"bus": "yes", "highway": "bus_stop", "name": "\u5c6f\u4f43\u6751", "public_transport": "stop_position"}}, {"type": "node", "id": 269422420, "lat": 40.0670721, "lon": 116.2146286, "tags": {"bus": "yes", "highway": "bus_stop", "name": "\u4e0a\u5e84\u8def\u53e3\u4e1c", "public_transport": "stop_position"}}, {"type": "node", "id": 269422429, "lat": 40.0775939, "lon": 116.2550452, "tags": {"bus": "yes", "highway": "bus_stop", "name": "\u6c38\u4e30\u4e61\u8f9b\u5e97", "public_transport": "stop_position"}}, {"type": "node", "id": 269422439, "lat": 40.092891, "lon": 116.2878734, "tags": {"bus": "yes", "highway": "bus_stop", "name": "\u5730\u94c1\u751f\u547d\u79d1\u5b66\u56ed\u7ad9", "public_transport": "stop_position"}}, {"type": "node", "id": 269704764, "lat": 39.9287887, "lon": 116.3809857, "tags": {"amenity": "ferry_terminal", "ferry": "yes", "public_transport": "station"}}, {"type": "node", "id": 269704765, "lat": 39.9254879, "lon": 116.3828438, "tags": {"amenity": "ferry_terminal", "ferry": "yes", "public_transport": "station"}}, {"type": "node", "id": 269996666, "lat": 39.9021664, "lon": 116.4210124, "tags": {"alt_name": "\u5317\u4eac\u7ad9", "alt_name:en": "Beijing Station;Beijing Railway Station", "name": "\u5317\u4eac", "name:de": "Peking", "name:en": "Beijing", "name:es": "Pek\u00edn", "name:ru": "\u041f\u0435\u043a\u0438\u043d", "name:zh": "\u5317\u4eac", "name:zh-Hans": "\u5317\u4eac", "name:zh-Hant": "\u5317\u4eac", "note": "\u4eac\u6caa\u7ebfK2+175 \u5317\u4eac\u8054\u7edc\u7ebfK0+775", "public_transport": "station", "railway": "station", "railway:position": "2.175", "railway:ref": "10001", "train": "yes", "wikidata": "Q285141", "wikipedia": "zh:\u5317\u4eac\u7ad9"}}, {"type": "node", "id": 272425524, "lat": 40.0317701, "lon": 116.3141025, "tags": {"name": "\u4e0a\u5730", "name:en": "Shangdi", "name:zh": "\u4e0a\u5730", "public_transport": "stop_position", "railway": "stop", "subway": "yes"}}, {"type": "node", "id": 274696962, "lat": 40.0696244, "lon": 116.3297011, "tags": {"railway": "subway_entrance"}}, {"type": "node", "id": 274696967, "lat": 40.0696267, "lon": 116.3300797, "tags": {"railway": "subway_entrance"}}, {"type": "node", "id": 274702786, "lat": 40.0416022, "lon": 116.4282789, "tags": {"name": "\u5317\u82d1", "name:en": "Beiyuan", "name:zh": "\u5317\u82d1", "public_transport": "stop_position", "railway": "stop", "subway": "yes"}}, {"type": "node", "id": 274845713, "lat": 39.9617884, "lon": 116.3964541, "tags": {"bus": "yes", "highway": "bus_stop", "name": "\u5916\u9986\u659c\u8857", "public_transport": "stop_position"}}, {"type": "node", "id": 274845714, "lat": 39.9615544, "lon": 116.3969105, "tags": {"bus": "yes", "highway": "bus_stop", "name": "\u5916\u9986\u659c\u8857", "public_transport": "stop_position"}}, {"type": "node", "id": 277313539, "lat": 39.9562772, "lon": 116.2830805, "tags": {"bus": "yes", "name": "\u8fdc\u5927\u8def\u4e1c\u53e3", "name:zh": "\u8fdc\u5927\u8def\u4e1c\u53e3", "public_transport": "stop_position"}}, {"type": "node", "id": 277313632, "lat": 39.9561671, "lon": 116.2837071, "tags": {"bus": "yes", "name": "\u8fdc\u5927\u8def\u4e1c\u53e3", "name:zh": "\u8fdc\u5927\u8def\u4e1c\u53e3", "public_transport": "stop_position"}}, {"type": "node", "id": 277313643, "lat": 39.9542595, "lon": 116.2701577, "tags": {"bus": "yes", "name": "\u4e1c\u5189\u6751", "name:zh": "\u4e1c\u5189\u6751", "public_transport": "stop_position"}}, {"type": "node", "id": 281923747, "lat": 40.0312747, "lon": 116.3137544, "tags": {"bus": "yes", "highway": "bus_stop", "name": "\u57ce\u94c1\u4e0a\u5730\u7ad9", "public_transport": "platform"}}, {"type": "node", "id": 281923785, "lat": 40.0309723, "lon": 116.3139731, "tags": {"bus": "yes", "highway": "bus_stop", "name": "\u57ce\u94c1\u4e0a\u5730\u7ad9", "public_transport": "platform"}}, {"type": "node", "id": 286278882, "lat": 40.0382345, "lon": 116.3172792, "tags": {"bench": "no", "highway": "platform", "public_transport": "platform", "shelter": "no"}}, {"type": "node", "id": 286278887, "lat": 40.0429622, "lon": 116.3162345, "tags": {"bus": "yes", "highway": "bus_stop", "name": "\u5f53\u4ee3\u57ce\u5e02\u5bb6\u56ed", "public_transport": "platform"}}, {"type": "node", "id": 287331498, "lat": 39.8923581, "lon": 116.4380126, "tags": {"bus": "yes", "name": "\u5e7f\u6e20\u95e8", "name:zh": "\u5e7f\u6e20\u95e8", "public_transport": "stop_position"}}, {"type": "node", "id": 287335101, "lat": 39.8832919, "lon": 116.439238, "tags": {"bus": "yes", "name": "\u5149\u660e\u6865", "name:zh": "\u5149\u660e\u6865", "public_transport": "stop_position"}}, {"type": "node", "id": 287967428, "lat": 39.8665561, "lon": 116.3464084, "tags": {"bus": "yes", "name": "\u83dc\u6237\u8425\u6865\u4e1c", "name:zh": "\u83dc\u6237\u8425\u6865\u4e1c", "public_transport": "stop_position"}}, {"type": "node", "id": 287967433, "lat": 39.866518, "lon": 116.3462031, "tags": {"bus": "yes", "name": "\u83dc\u6237\u8425\u6865\u4e1c", "name:zh": "\u83dc\u6237\u8425\u6865\u4e1c", "public_transport": "stop_position"}}, {"type": "node", "id": 288858553, "lat": 39.9627404, "lon": 116.2459842, "tags": {"alt_name": "\u4e00\u96f6\u4e00\u7ad9;\u4e00\u96f6\u4e00\u706b\u8f66\u7ad9;Yilingyi Railway Station", "alt_name:en": "101 Railway Station", "alt_name:zh": "\u4e00\u3007\u4e00", "name": "\u4e00\u96f6\u4e00", "name:en": "Yilingyi", "name:zh": "\u4e00\u96f6\u4e00", "public_transport": "station", "railway": "station", "railway:position": "15.35", "train": "yes"}}, {"type": "node", "id": 289121817, "lat": 39.8462653, "lon": 116.4779239, "tags": {"bus": "yes", "highway": "bus_stop", "name": "\u5341\u516b\u91cc\u5e97\u5317\u6865", "public_transport": "stop_position"}}, {"type": "node", "id": 289124116, "lat": 39.8389125, "lon": 116.4685034, "tags": {"bus": "yes", "highway": "bus_stop", "name": "\u5341\u516b\u91cc\u5e97\u5357\u6865", "public_transport": "stop_position", "wheelchair": "yes"}}, {"type": "node", "id": 289276157, "lat": 39.9668264, "lon": 116.2683937, "tags": {"bus": "yes", "highway": "bus_stop", "name": "\u56db\u6d77\u6865\u5357", "public_transport": "stop_position"}}, {"type": "node", "id": 289555552, "lat": 40.0355938, "lon": 116.4101519, "tags": {"bus": "yes", "highway": "bus_stop", "name": "\u5927\u7f8a\u574a", "public_transport": "platform"}}, {"type": "node", "id": 290598399, "lat": 39.947388, "lon": 116.3670499, "tags": {"name": "\u79ef\u6c34\u6f6d", "name:en": "Jishuitan", "name:ru": "\u0426\u0437\u0438\u0448\u0443\u0439\u0442\u0430\u043d\u044c", "name:zh": "\u79ef\u6c34\u6f6d", "public_transport": "stop_position", "railway": "stop", "subway": "yes"}}, {"type": "node", "id": 290598524, "lat": 40.0317472, "lon": 116.3139742, "tags": {"railway": "subway_entrance", "ref": "A"}}, {"type": "node", "id": 290601047, "lat": 39.9913979, "lon": 116.3317163, "tags": {"name": "Wudaokou Station B Exit", "name:zh": "\u4e94\u9053\u53e3B\u51fa\u53e3", "railway": "subway_entrance", "ref": "B"}}, {"type": "node", "id": 290601069, "lat": 39.9917592, "lon": 116.3316749, "tags": {"name": "Wudaokou Station A Exit", "name:zh": "\u4e94\u9053\u53e3A\u51fa\u53e3", "railway": "subway_entrance", "ref": "A"}}, {"type": "node", "id": 293181249, "lat": 40.099388, "lon": 116.2868568, "tags": {"bus": "yes", "highway": "bus_stop", "name": "\u53f2\u5404\u5e84\u5357", "public_transport": "platform"}}, {"type": "node", "id": 293181334, "lat": 40.0607572, "lon": 116.3169022, "tags": {"bus": "yes", "highway": "bus_stop", "name": "\u9f99\u5174\u56ed", "public_transport": "stop_position"}}, {"type": "node", "id": 294115577, "lat": 39.9673556, "lon": 116.4111731, "tags": {"name": "\u548c\u5e73\u897f\u6865A\u51fa\u53e3", "railway": "subway_entrance", "ref": "A"}}, {"type": "node", "id": 294115580, "lat": 39.9433911, "lon": 116.4271379, "tags": {"bus": "yes", "name": "\u4e1c\u76f4\u95e8\u5317", "name:zh": "\u4e1c\u76f4\u95e8\u5317", "public_transport": "stop_position"}}, {"type": "node", "id": 294118062, "lat": 39.9766495, "lon": 116.3110407, "tags": {"bus": "yes", "highway": "bus_stop", "name": "\u6d77\u6dc0\u9ec4\u5e84\u5317", "public_transport": "stop_position"}}, {"type": "node", "id": 294121375, "lat": 39.9674728, "lon": 116.4057598, "tags": {"amenity": "bus_station", "bus": "yes", "name": "\u5b89\u8d1e\u6865\u4e1c", "public_transport": "station"}}, {"type": "node", "id": 294122490, "lat": 39.947986, "lon": 116.4115386, "tags": {"name": "\u96cd\u548c\u5bab", "name:en": "Yonghegong Lama Temple", "name:ru": "\u042e\u043d\u0445\u044d\u0433\u0443\u043d", "name:zh": "\u96cd\u548c\u5bab", "public_transport": "stop_position", "railway": "stop", "subway": "yes"}}, {"type": "node", "id": 294123182, "lat": 39.9397065, "lon": 116.4277718, "tags": {"name": "\u4e1c\u76f4\u95e8", "name:en": "Dongzhimen", "name:ru": "\u0414\u0443\u043d\u0447\u0436\u0438\u043c\u044d\u043d\u044c", "name:zh": "\u4e1c\u76f4\u95e8", "public_transport": "stop_position", "railway": "stop", "subway": "yes"}}, {"type": "node", "id": 294123645, "lat": 39.9400943, "lon": 116.4111147, "tags": {"name": "\u5317\u65b0\u6865\u7ad9B\u53e3", "name:en": "Beixinqiao Subway Line 5 Exit B", "railway": "subway_entrance", "ref": "B"}}, {"type": "node", "id": 294123681, "lat": 40.0404977, "lon": 116.4083285, "tags": {"name": "\u7acb\u6c34\u6865\u5357", "name:en": "Lishuiqiao South", "name:ru": "\u041b\u0438\u0448\u0443\u0439\u0446\u0438\u0430\u043e-\u042e\u0436\u043d\u044b\u0439", "name:zh": "\u7acb\u6c34\u6865\u5357", "public_transport": "stop_position", "railway": "stop", "subway": "yes"}}, {"type": "node", "id": 296298234, "lat": 39.8539565, "lon": 116.407906, "tags": {"bus": "yes", "name": "\u8d75\u516c\u53e3\u6865\u5357", "name:zh": "\u8d75\u516c\u53e3\u6865\u5357", "public_transport": "stop_position"}}, {"type": "node", "id": 296298249, "lat": 39.854088, "lon": 116.4081368, "tags": {"bus": "yes", "name": "\u8d75\u516c\u53e3\u6865\u5357", "name:zh": "\u8d75\u516c\u53e3\u6865\u5357", "public_transport": "stop_position"}}, {"type": "node", "id": 296954444, "lat": 39.9786124, "lon": 116.3742013, "tags": {"bus": "yes", "highway": "bus_stop", "name": "\u7941\u5bb6\u8c41\u5b50", "public_transport": "platform"}}, {"type": "node", "id": 297146850, "lat": 40.0333812, "lon": 116.2979865, "tags": {"bus": "yes", "highway": "bus_stop", "name": "\u9a6c\u8fde\u6d3c\u5317\u8def\u4e1c\u53e3", "public_transport": "stop_position"}}, {"type": "node", "id": 297146872, "lat": 40.0347144, "lon": 116.3028654, "tags": {"bus": "yes", "description": "For Bus No. 476, 909, YT108", "highway": "bus_stop", "name": "\u4e0a\u5730\u4e09\u8857\u897f\u53e3", "name:en": "Shangdi Roundabout West Station", "public_transport": "platform"}}, {"type": "node", "id": 297147252, "lat": 40.0305642, "lon": 116.2592904, "tags": {"bus": "yes", "highway": "bus_stop", "name": "\u767e\u671b\u5c71\u68ee\u6797\u516c\u56ed", "name:en": "Baiwang Mountain Forest Park", "public_transport": "platform"}}, {"type": "node", "id": 300814728, "lat": 39.982405, "lon": 116.2740962, "tags": {"bus": "yes", "highway": "bus_stop", "name": "\u516d\u90ce\u5e84\u897f\u53e3", "public_transport": "stop_position"}}, {"type": "node", "id": 318265958, "lat": 39.8966333, "lon": 116.3944354, "tags": {"bus": "yes", "name": "\u524d\u95e8", "name:zh": "\u524d\u95e8", "public_transport": "stop_position"}}, {"type": "node", "id": 321415428, "lat": 39.8660917, "lon": 116.3026096, "tags": {"bus": "yes", "highway": "bus_stop", "name": "\u4e3d\u6cfd\u6865\u897f", "public_transport": "platform"}}, {"type": "node", "id": 321415764, "lat": 39.8651074, "lon": 116.308619, "tags": {"bus": "yes", "highway": "bus_stop", "name": "\u4e3d\u6cfd\u6865", "public_transport": "platform"}}, {"type": "node", "id": 321615502, "lat": 39.9025492, "lon": 116.3503808, "tags": {"bus": "yes", "highway": "bus_stop", "name": "\u590d\u5174\u95e8\u5357", "name:zh": "\u590d\u5174\u95e8\u5357", "public_transport": "stop_position"}}, {"type": "node", "id": 321803071, "lat": 39.8922364, "lon": 116.4520629, "tags": {"bus": "yes", "name": "\u53cc\u4e95\u6865\u897f", "name:zh": "\u53cc\u4e95\u6865\u897f", "public_transport": "stop_position"}}, {"type": "node", "id": 321853817, "lat": 39.9678656, "lon": 116.4301501, "tags": {"bus": "yes", "highway": "bus_stop", "name": "\u897f\u575d\u6cb3", "public_transport": "platform"}}, {"type": "node", "id": 321858537, "lat": 39.9445194, "lon": 116.4279038, "tags": {"bus": "yes", "name": "\u4e1c\u76f4\u95e8\u5317", "name:zh": "\u4e1c\u76f4\u95e8\u5317", "public_transport": "stop_position"}}, {"type": "node", "id": 322121115, "lat": 39.8880817, "lon": 116.380474, "tags": {"bus": "yes", "name": "\u864e\u574a\u6865\u8def\u53e3\u4e1c", "name:zh": "\u864e\u574a\u6865\u8def\u53e3\u4e1c", "public_transport": "stop_position"}}, {"type": "node", "id": 322121130, "lat": 39.8918312, "lon": 116.4163753, "tags": {"bus": "yes", "name": "\u6984\u6746\u5e02", "name:zh": "\u6984\u6746\u5e02", "public_transport": "stop_position"}}, {"type": "node", "id": 322447230, "lat": 39.869874, "lon": 116.4141072, "tags": {"bus": "yes", "highway": "bus_stop", "name": "\u7389\u8713\u6865\u897f", "name:zh": "\u7389\u8713\u6865\u897f", "public_transport": "platform"}}, {"type": "node", "id": 322449438, "lat": 39.8920671, "lon": 116.4520126, "tags": {"bus": "yes", "name": "\u53cc\u4e95\u6865\u897f", "name:zh": "\u53cc\u4e95\u6865\u897f", "public_transport": "stop_position"}}, {"type": "node", "id": 322522042, "lat": 39.865363, "lon": 116.4512356, "tags": {"alt_name": "\u5341\u91cc\u6cb3\u6865\u5357;\u5341\u91cc\u6cb3\u6865", "bus": "yes", "highway": "bus_stop", "name": "\u5341\u91cc\u6cb3", "public_transport": "platform"}}, {"type": "node", "id": 322524530, "lat": 39.8601872, "lon": 116.4814383, "tags": {"bus": "yes", "name": "\u5c0f\u6b66\u57fa\u6865\u5317", "name:zh": "\u5c0f\u6b66\u57fa\u6865\u5317", "public_transport": "stop_position"}}, {"type": "node", "id": 323144869, "lat": 39.9091486, "lon": 116.5709239, "tags": {"name": "\u53cc\u6865", "name:en": "Shuangqiao", "name:zh": "\u53cc\u6865", "public_transport": "stop_position", "railway": "stop", "subway": "yes"}}, {"type": "node", "id": 323144876, "lat": 39.9080547, "lon": 116.5488712, "tags": {"name": "\u4f20\u5a92\u5927\u5b66", "name:en": "Communication University of China", "name:zh": "\u4f20\u5a92\u5927\u5b66", "public_transport": "stop_position", "railway": "stop", "subway": "yes"}}, {"type": "node", "id": 323144883, "lat": 39.9083217, "lon": 116.5254528, "tags": {"name": "\u9ad8\u7891\u5e97", "name:en": "Gaobeidian", "name:zh": "\u9ad8\u7891\u5e97", "public_transport": "stop_position", "railway": "stop", "subway": "yes", "train": "yes", "wikidata": "Q5521677", "wikipedia": "zh:\u9ad8\u7891\u5e97\u7ad9_(\u5317\u4eac\u5e02)"}}, {"type": "node", "id": 323145029, "lat": 39.9072151, "lon": 116.5093601, "tags": {"name": "\u56db\u60e0\u4e1c", "name:en": "Sihui East", "name:zh": "\u56db\u60e0\u4e1c", "public_transport": "stop_position", "railway": "stop", "subway": "yes"}}, {"type": "node", "id": 325029490, "lat": 39.9235507, "lon": 116.2706225, "tags": {"bus": "yes", "name": "\u5b9a\u6167\u6865\u4e1c", "name:zh": "\u5b9a\u6167\u6865\u4e1c", "public_transport": "stop_position"}}, {"type": "node", "id": 325683380, "lat": 39.9066209, "lon": 116.3022854, "tags": {"bus": "yes", "name": "\u516c\u4e3b\u575f", "name:zh": "\u516c\u4e3b\u575f", "public_transport": "stop_position"}}, {"type": "node", "id": 325683404, "lat": 39.9004749, "lon": 116.3039469, "tags": {"bus": "yes", "highway": "bus_stop", "name": "\u516c\u4e3b\u575f\u5357", "public_transport": "platform"}}, {"type": "node", "id": 331000821, "lat": 39.8022184, "lon": 116.4723156, "tags": {"bus": "yes", "highway": "bus_stop", "name": "\u4ea6\u5e84\u6865\u5357", "public_transport": "stop_position"}}, {"type": "node", "id": 331879531, "lat": 39.9112223, "lon": 116.3571157, "tags": {"bus": "yes", "name": "\u8f9f\u624d\u80e1\u540c", "name:zh": "\u8f9f\u624d\u80e1\u540c", "public_transport": "stop_position"}}, {"type": "node", "id": 332263578, "lat": 39.8991062, "lon": 116.395842, "tags": {"bus": "yes", "name": "\u524d\u95e8\u4e1c", "name:zh": "\u524d\u95e8\u4e1c", "public_transport": "stop_position"}}, {"type": "node", "id": 332263595, "lat": 39.8991768, "lon": 116.3956669, "tags": {"bus": "yes", "name": "\u524d\u95e8\u4e1c", "name:zh": "\u524d\u95e8\u4e1c", "public_transport": "stop_position"}}, {"type": "node", "id": 332948315, "lat": 39.8500689, "lon": 116.3414306, "tags": {"bus": "yes", "highway": "bus_stop", "public_transport": "platform"}}, {"type": "node", "id": 339084600, "lat": 39.9059375, "lon": 116.3851643, "tags": {"name": "\u5929\u5b89\u95e8\u897f", "name:de": "Tian'anmen West", "name:en": "Tian'anmen West", "name:ru": "\u0422\u044f\u043d\u044c\u0430\u043d\u044c\u043c\u044d\u043d\u044c-\u0421\u0438", "name:zh": "\u5929\u5b89\u95e8\u897f", "name:zh-Hans": "\u5929\u5b89\u95e8\u897f", "name:zh-Hant": "\u5929\u5b89\u9580\u897f", "name:zh_pinyin": "Ti\u0101n'\u0101nm\u00e9n-X\u012b", "public_transport": "stop_position", "railway": "stop", "subway": "yes"}}, {"type": "node", "id": 339084700, "lat": 39.9062701, "lon": 116.3949205, "tags": {"name": "\u5929\u5b89\u95e8\u4e1c", "name:de": "Tian'anmen Ost", "name:en": "Tian'anmen East", "name:ru": "\u0422\u044f\u043d\u044c\u0430\u043d\u044c\u043c\u044d\u043d\u044c-\u0414\u0443\u043d", "name:zh": "\u5929\u5b89\u95e8\u4e1c", "name:zh-Hans": "\u5929\u5b89\u95e8\u4e1c", "name:zh-Hant": "\u5929\u5b89\u9580\u6771", "name:zh_pinyin": "Ti\u0101n'\u0101nm\u00e9n-D\u014dng", "public_transport": "stop_position", "railway": "stop", "subway": "yes"}}, {"type": "node", "id": 339084979, "lat": 39.9066195, "lon": 116.4051694, "tags": {"name": "\u738b\u5e9c\u4e95", "name:en": "Wangfujing", "name:zh": "\u738b\u5e9c\u4e95", "public_transport": "stop_position", "railway": "stop", "subway": "yes"}}, {"type": "node", "id": 339085117, "lat": 39.9068495, "lon": 116.4139666, "tags": {"name": "\u4e1c\u5355", "name:en": "Dongdan", "name:zh": "\u4e1c\u5355", "public_transport": "stop_position", "railway": "stop", "subway": "yes"}}, {"type": "node", "id": 339085190, "lat": 39.9071023, "lon": 116.4287228, "tags": {"name": "\u5efa\u56fd\u95e8", "name:en": "Jianguomen", "name:zh": "\u5efa\u56fd\u95e8", "public_transport": "stop_position", "railway": "stop", "subway": "yes"}}, {"type": "node", "id": 339085194, "lat": 39.9070574, "lon": 116.4441504, "tags": {"name": "\u6c38\u5b89\u91cc", "name:en": "Yonganli", "name:zh": "\u6c38\u5b89\u91cc", "public_transport": "stop_position", "railway": "stop", "subway": "yes"}}, {"type": "node", "id": 339085195, "lat": 39.9069856, "lon": 116.4532958, "tags": {"name": "\u56fd\u8d38", "name:en": "Guomao", "name:zh": "\u56fd\u8d38", "public_transport": "stop_position", "railway": "stop", "subway": "yes"}}, {"type": "node", "id": 339085203, "lat": 39.9069222, "lon": 116.4694903, "tags": {"name": "\u5927\u671b\u8def", "name:en": "Dawanglu", "name:zh": "\u5927\u671b\u8def", "public_transport": "stop_position", "railway": "stop", "subway": "yes"}}, {"type": "node", "id": 339085253, "lat": 39.9075921, "lon": 116.489373, "tags": {"name": "\u56db\u60e0", "name:en": "Sihui", "name:zh": "\u56db\u60e0", "name:zh_pinyin": "Sihui", "public_transport": "stop_position", "railway": "stop", "subway": "yes"}}, {"type": "node", "id": 339085267, "lat": 39.9073848, "lon": 116.5093599, "tags": {"name": "\u56db\u60e0\u4e1c", "name:en": "Sihui East", "name:zh": "\u56db\u60e0\u4e1c", "public_transport": "stop_position", "railway": "stop", "subway": "yes"}}, {"type": "node", "id": 339085722, "lat": 39.9074629, "lon": 116.4893673, "tags": {"name": "\u56db\u60e0", "name:zh": "\u56db\u60e0", "name:zh_pinyin": "Sihui", "public_transport": "stop_position", "railway": "stop", "subway": "yes"}}, {"type": "node", "id": 339085844, "lat": 39.9057485, "lon": 116.3676628, "tags": {"name": "\u897f\u5355", "name:en": "Xidan", "name:zh": "\u897f\u5355", "public_transport": "stop_position", "railway": "stop", "subway": "yes"}}, {"type": "node", "id": 339086167, "lat": 39.9058006, "lon": 116.3513203, "tags": {"name": "\u590d\u5174\u95e8", "name:en": "Fuxingmen", "name:zh": "\u590d\u5174\u95e8", "public_transport": "stop_position", "railway": "stop", "subway": "yes"}}, {"type": "node", "id": 339086220, "lat": 39.9058369, "lon": 116.3465708, "tags": {"name": "\u5357\u793c\u58eb\u8def", "name:en": "Nanlishilu", "name:zh": "\u5357\u793c\u58eb\u8def", "public_transport": "stop_position", "railway": "stop", "subway": "yes"}}, {"type": "node", "id": 339086329, "lat": 39.9060936, "lon": 116.3178207, "tags": {"name": "\u519b\u4e8b\u535a\u7269\u9986", "name:de": "Milit\u00e4rmuseum", "name:en": "Military Museum", "name:zh": "\u519b\u4e8b\u535a\u7269\u9986", "name:zh_pinyin": "J\u016bnsh\u00ec B\u00f3w\u00f9gu\u01cen", "public_transport": "stop_position", "railway": "stop", "subway": "yes"}}, {"type": "node", "id": 339086364, "lat": 39.9060636, "lon": 116.331503, "tags": {"name": "\u6728\u6a28\u5730", "name:en": "Muxidi", "name:zh": "\u6728\u6a28\u5730", "public_transport": "stop_position", "railway": "stop", "subway": "yes"}}, {"type": "node", "id": 339086386, "lat": 39.9061436, "lon": 116.3041253, "tags": {"name": "\u516c\u4e3b\u575f", "name:en": "Gongzhufen station", "name:zh": "\u516c\u4e3b\u575f", "public_transport": "stop_position", "railway": "stop", "subway": "yes"}}, {"type": "node", "id": 339086745, "lat": 39.9061848, "lon": 116.2887729, "tags": {"name": "\u4e07\u5bff\u8def", "name:en": "Wanshoulu", "name:zh": "\u4e07\u5bff\u8def", "public_transport": "stop_position", "railway": "stop", "subway": "yes"}}, {"type": "node", "id": 339087731, "lat": 39.9391324, "lon": 116.3492602, "tags": {"name": "\u897f\u76f4\u95e8", "name:en": "Xizhimen", "name:ru": "\u0421\u0438\u0447\u0436\u0438\u043c\u044d\u043d\u044c", "name:zh": "\u897f\u76f4\u95e8", "public_transport": "stop_position", "railway": "stop", "subway": "yes"}}, {"type": "node", "id": 339088299, "lat": 39.899616, "lon": 116.4106985, "tags": {"name": "\u5d07\u6587\u95e8", "name:en": "Chongwenmen", "name:ru": "\u0427\u0443\u043d\u0432\u044d\u043d\u044c\u043c\u044d\u043d\u044c", "name:zh": "\u5d07\u6587\u95e8", "public_transport": "stop_position", "railway": "stop", "subway": "yes"}}, {"type": "node", "id": 339088654, "lat": 39.9477287, "lon": 116.402067, "tags": {"name": "\u5b89\u5b9a\u95e8", "name:en": "Andingmen", "name:ru": "\u0410\u043d\u044c\u0434\u0438\u043d\u043c\u044d\u043d\u044c", "name:zh": "\u5b89\u5b9a\u95e8", "public_transport": "stop_position", "railway": "stop", "subway": "yes", "wikidata": "Q4754482"}}, {"type": "node", "id": 339088788, "lat": 39.9476038, "lon": 116.3879152, "tags": {"name": "\u9f13\u697c\u5927\u8857", "name:en": "Guloudajie", "name:ru": "\u0413\u0443\u043b\u043e\u0443\u0434\u0430\u0446\u0437\u0435", "name:zh": "\u9f13\u697c\u5927\u8857", "name:zh_pinyin": "G\u016dl\u00f3ud\u00e0ji\u0113", "public_transport": "stop_position", "railway": "stop", "subway": "yes"}}, {"type": "node", "id": 339089288, "lat": 39.9322848, "lon": 116.4280954, "tags": {"name": "\u4e1c\u56db\u5341\u6761", "name:en": "Dongsi Shitiao", "name:ru": "\u0414\u0443\u043d\u0441\u0438-\u0448\u0438\u0442\u044f\u043e", "name:zh": "\u4e1c\u56db\u5341\u6761", "public_transport": "stop_position", "railway": "stop", "subway": "yes"}}, {"type": "node", "id": 339089289, "lat": 39.9230493, "lon": 116.4284953, "tags": {"name": "\u671d\u9633\u95e8", "name:en": "Chaoyangmen", "name:ru": "\u0427\u0430\u043e\u044f\u043d\u043c\u044d\u043d\u044c", "name:zh": "\u671d\u9633\u95e8", "public_transport": "stop_position", "railway": "stop", "subway": "yes"}}, {"type": "node", "id": 339089391, "lat": 39.907176, "lon": 116.4296732, "tags": {"name": "\u5efa\u56fd\u95e8", "name:en": "Jianguomen", "name:ru": "\u0426\u0437\u044f\u043d\u044c\u0433\u043e\u043c\u044d\u043d\u044c", "name:zh": "\u5efa\u56fd\u95e8", "public_transport": "stop_position", "railway": "stop", "subway": "yes"}}, {"type": "node", "id": 339089407, "lat": 39.9035383, "lon": 116.4209558, "tags": {"name": "\u5317\u4eac\u7ad9", "name:de": "Peking Bahnhof U-Bahnhof", "name:en": "Beijing Railway Station", "name:hu": "Peking F\u0151p\u00e1lyaudvar", "name:ja": "\u5317\u4eac\u99c5", "name:ru": "\u0411\u044d\u0439\u0446\u0437\u0438\u043d\u0447\u0436\u0430\u043d\u044c", "name:zh": "\u5317\u4eac\u7ad9", "public_transport": "stop_position", "railway": "stop", "subway": "yes"}}, {"type": "node", "id": 339089806, "lat": 39.8986445, "lon": 116.3779968, "tags": {"name": "\u548c\u5e73\u95e8", "name:en": "Hepingmen", "name:ru": "\u0425\u044d\u043f\u0438\u043d\u043c\u044d\u043d\u044c", "name:zh": "\u548c\u5e73\u95e8", "public_transport": "stop_position", "railway": "stop", "subway": "yes"}}, {"type": "node", "id": 339089807, "lat": 39.8983902, "lon": 116.3679294, "tags": {"name": "\u5ba3\u6b66\u95e8", "name:en": "Xuanwumen", "name:zh": "\u5ba3\u6b66\u95e8", "public_transport": "stop_position", "railway": "stop", "subway": "yes"}}, {"type": "node", "id": 339089932, "lat": 39.8980033, "lon": 116.3572162, "tags": {"name": "\u957f\u693f\u8857", "name:en": "Changchunjie", "name:ru": "\u0427\u0430\u043d\u0447\u0443\u043d\u044c\u0446\u0437\u0435", "name:zh": "\u957f\u693f\u8857", "public_transport": "stop_position", "railway": "stop", "subway": "yes", "wikidata": "Q5071746", "wikipedia:zh": "\u957f\u693f\u8857\u7ad9"}}, {"type": "node", "id": 339090100, "lat": 39.9058346, "lon": 116.35041, "tags": {"name": "\u590d\u5174\u95e8", "name:en": "Fuxingmen", "name:ru": "\u0424\u0443\u0441\u0438\u043d\u043c\u044d\u043d\u044c", "name:zh": "\u590d\u5174\u95e8", "public_transport": "stop_position", "railway": "stop", "subway": "yes", "wikidata": "Q4567932", "wikipedia:zh": "\u590d\u5174\u95e8 (\u5317\u4eac)"}}, {"type": "node", "id": 339090107, "lat": 39.9223101, "lon": 116.3499722, "tags": {"name": "\u961c\u6210\u95e8", "name:en": "Fuchengmen", "name:ru": "\u0424\u0443\u0447\u044d\u043d\u043c\u044d\u043d\u044c", "name:zh": "\u961c\u6210\u95e8", "public_transport": "stop_position", "railway": "stop", "subway": "yes", "wikidata": "Q5506924"}}, {"type": "node", "id": 339090184, "lat": 39.9310072, "lon": 116.3495663, "tags": {"name": "\u8f66\u516c\u5e84", "name:en": "Chegongzhuang", "name:ru": "\u0427\u044d\u0433\u0443\u043d\u0447\u0436\u0443\u0430\u043d", "name:zh": "\u8f66\u516c\u5e84", "public_transport": "stop_position", "railway": "stop", "subway": "yes"}}, {"type": "node", "id": 339090514, "lat": 39.9061583, "lon": 116.2296778, "tags": {"name": "\u516b\u5b9d\u5c71", "name:en": "Babaoshan", "name:zh": "\u516b\u5b9d\u5c71", "network": "\u5730\u94c11\u53f7\u7ebf", "public_transport": "stop_position", "railway": "stop", "subway": "yes"}}, {"type": "node", "id": 339091811, "lat": 39.9061401, "lon": 116.2064859, "tags": {"name": "\u516b\u89d2\u6e38\u4e50\u56ed", "name:en": "Bajiao Amusement Park", "name:zh": "\u516b\u89d2\u6e38\u4e50\u56ed", "public_transport": "stop_position", "railway": "stop", "subway": "yes"}}, {"type": "node", "id": 339092170, "lat": 39.9061675, "lon": 116.2468991, "tags": {"name": "\u7389\u6cc9\u8def", "name:en": "Yuquanlu", "name:zh": "\u7389\u6cc9\u8def", "public_transport": "stop_position", "railway": "stop", "subway": "yes"}}, {"type": "node", "id": 339094371, "lat": 39.9469736, "lon": 116.4102421, "tags": {"name": "\u96cd\u548c\u5bab", "name:en": "Yonghegong Lama Temple", "name:zh": "\u96cd\u548c\u5bab", "public_transport": "stop_position", "railway": "stop", "subway": "yes"}}, {"type": "node", "id": 339094381, "lat": 39.9154127, "lon": 116.4119212, "tags": {"name": "\u706f\u5e02\u53e3", "name:en": "Dengshikou", "name:zh": "\u706f\u5e02\u53e3", "public_transport": "stop_position", "railway": "stop", "subway": "yes"}}, {"type": "node", "id": 339095053, "lat": 39.9573957, "lon": 116.4123242, "tags": {"name": "\u548c\u5e73\u91cc\u5317\u8857", "name:en": "Hepinglibeijie", "name:zh": "\u548c\u5e73\u91cc\u5317\u8857", "public_transport": "stop_position", "railway": "stop", "subway": "yes"}}, {"type": "node", "id": 339097239, "lat": 39.999324, "lon": 116.386751, "tags": {"name": "\u5965\u6797\u5339\u514b\u516c\u56ed", "name:en": "Olympic Green", "public_transport": "stop_position", "railway": "stop", "subway": "yes"}}, {"type": "node", "id": 339097485, "lat": 40.0091958, "lon": 116.3862915, "tags": {"name": "\u68ee\u6797\u516c\u56ed\u5357\u95e8", "name:en": "South Gate of Forest Park", "name:zh": "\u68ee\u6797\u516c\u56ed\u5357\u95e8", "public_transport": "stop_position", "railway": "stop", "subway": "yes"}}, {"type": "node", "id": 339098344, "lat": 39.9841326, "lon": 116.3874758, "tags": {"name": "\u5965\u4f53\u4e2d\u5fc3", "name:en": "Olympic Sports Center", "name:zh": "\u5965\u4f53\u4e2d\u5fc3", "public_transport": "stop_position", "railway": "stop", "subway": "yes", "wikidata": "Q6126685"}}, {"type": "node", "id": 339098540, "lat": 39.9763986, "lon": 116.3878002, "tags": {"name": "\u5317\u571f\u57ce", "name:en": "Beitucheng", "name:zh": "\u5317\u571f\u57ce", "public_transport": "stop_position", "railway": "stop", "subway": "yes"}}, {"type": "node", "id": 339099394, "lat": 39.9219942, "lon": 116.4551638, "tags": {"name": "\u547c\u5bb6\u697c", "name:en": "Hujialou", "name:zh": "\u547c\u5bb6\u697c", "name:zh_pinyin": "H\u016bji\u0101l\u00f3u", "public_transport": "stop_position", "railway": "stop", "subway": "yes"}}, {"type": "node", "id": 339099503, "lat": 39.9078777, "lon": 116.4551072, "tags": {"name": "\u56fd\u8d38", "name:en": "Guomao", "name:zh": "\u56fd\u8d38", "public_transport": "stop_position", "railway": "stop", "subway": "yes"}}, {"type": "node", "id": 339102778, "lat": 39.9598408, "lon": 116.4512757, "tags": {"name": "\u4e09\u5143\u6865", "name:en": "Sanyuanqiao", "name:zh": "\u4e09\u5143\u6865", "public_transport": "stop_position", "railway": "stop", "subway": "yes"}}, {"type": "node", "id": 339284620, "lat": 39.8944776, "lon": 116.3141455}, {"type": "node", "id": 339284621, "lat": 39.8944819, "lon": 116.3160883}, {"type": "node", "id": 339284622, "lat": 39.8925307, "lon": 116.3160826}, {"type": "node", "id": 339578713, "lat": 40.0358626, "lon": 116.3497985, "tags": {"bus": "yes", "highway": "bus_stop", "name": "\u5730\u94c1\u6c38\u6cf0\u5e84\u7ad9", "public_transport": "stop_position"}}, {"type": "node", "id": 339578854, "lat": 40.0367416, "lon": 116.3433567, "tags": {"bus": "yes", "highway": "bus_stop", "name": "\u524d\u5c6f\u8def", "public_transport": "stop_position"}}, {"type": "node", "id": 339581086, "lat": 40.0314069, "lon": 116.3404103, "tags": {"bus": "yes", "highway": "bus_stop", "name": "\u6e05\u6cb3\u5317", "public_transport": "stop_position"}}, {"type": "node", "id": 339582576, "lat": 40.0556162, "lon": 116.3217683, "tags": {"bus": "yes", "highway": "bus_stop", "name": "\u897f\u4e09\u65d7", "public_transport": "stop_position"}}, {"type": "node", "id": 340109821, "lat": 39.8970116, "lon": 116.3942621, "tags": {"bus": "yes", "name": "\u524d\u95e8", "name:zh": "\u524d\u95e8", "public_transport": "stop_position"}}, {"type": "node", "id": 340257439, "lat": 39.9230128, "lon": 116.4117599, "tags": {"name": "\u4e1c\u56db", "name:en": "Dongsi", "name:zh": "\u4e1c\u56db", "name:zh_pinyin": "D\u014dngs\u00ec", "public_transport": "stop_position", "railway": "stop", "subway": "yes"}}, {"type": "node", "id": 340258011, "lat": 39.9322924, "lon": 116.4113888, "tags": {"name": "\u5f20\u81ea\u5fe0\u8def", "name:en": "Zhangzizhonglu", "name:zh": "\u5f20\u81ea\u5fe0\u8def", "public_transport": "stop_position", "railway": "stop", "subway": "yes"}}, {"type": "node", "id": 340258199, "lat": 39.9394093, "lon": 116.4109847, "tags": {"name": "\u5317\u65b0\u6865", "name:en": "Beixinqiao", "name:zh": "\u5317\u65b0\u6865", "public_transport": "stop_position", "railway": "stop", "subway": "yes"}}, {"type": "node", "id": 340258817, "lat": 39.9068739, "lon": 116.4124215, "tags": {"name": "\u4e1c\u5355", "name:en": "Dongdan", "name:zh": "\u4e1c\u5355", "public_transport": "stop_position", "railway": "stop", "subway": "yes"}}, {"type": "node", "id": 340260004, "lat": 39.8994918, "lon": 116.41244, "tags": {"name": "\u5d07\u6587\u95e8", "name:en": "Chongwenmen", "name:zh": "\u5d07\u6587\u95e8", "public_transport": "stop_position", "railway": "stop", "subway": "yes"}}, {"type": "node", "id": 340260038, "lat": 39.8917004, "lon": 116.4127135, "tags": {"name": "\u78c1\u5668\u53e3", "name:en": "Ciqikou", "name:zh": "\u78c1\u5668\u53e3", "public_transport": "stop_position", "railway": "stop", "subway": "yes"}}, {"type": "node", "id": 340260096, "lat": 39.8822596, "lon": 116.4146462, "tags": {"name": "\u5929\u575b\u4e1c\u95e8", "name:en": "Tiantandongmen", "name:zh": "\u5929\u575b\u4e1c\u95e8", "public_transport": "stop_position", "railway": "stop", "subway": "yes"}}, {"type": "node", "id": 340260160, "lat": 39.8641249, "lon": 116.4155268, "tags": {"name": "\u84b2\u9ec4\u6986", "name:en": "Puhuangyu", "public_transport": "stop_position", "railway": "stop", "subway": "yes"}}, {"type": "node", "id": 340260308, "lat": 39.8559513, "lon": 116.4157106, "tags": {"name": "\u5218\u5bb6\u7a91", "name:en": "Liujiayao", "name:zh": "\u5218\u5bb6\u7a91", "public_transport": "stop_position", "railway": "stop", "subway": "yes"}}, {"type": "node", "id": 340260427, "lat": 39.844395, "lon": 116.4220122, "tags": {"name": "\u5b8b\u5bb6\u5e84", "name:en": "Songjiazhuang", "name:zh": "\u5b8b\u5bb6\u5e84", "name:zh_pinyin": "S\u00f2ngji\u0101zhu\u0101ng", "public_transport": "stop_position", "railway": "stop", "subway": "yes"}}, {"type": "node", "id": 340261588, "lat": 39.9666812, "lon": 116.4118857, "tags": {"name": "\u548c\u5e73\u897f\u6865", "name:en": "Hepingxiqiao", "name:zh": "\u548c\u5e73\u897f\u6865", "public_transport": "stop_position", "railway": "stop", "subway": "yes"}}, {"type": "node", "id": 340261667, "lat": 39.975959, "lon": 116.4114257, "tags": {"name": "\u60e0\u65b0\u897f\u8857\u5357\u53e3", "name:en": "Huixinxijie Nankou", "name:zh": "\u60e0\u65b0\u897f\u8857\u5357\u53e3", "public_transport": "stop_position", "railway": "stop", "subway": "yes"}}, {"type": "node", "id": 340261743, "lat": 39.9861785, "lon": 116.4109272, "tags": {"name": "\u60e0\u65b0\u897f\u8857\u5317\u53e3", "name:en": "Huixinxijie Beikou", "name:zh": "\u60e0\u65b0\u897f\u8857\u5317\u53e3", "public_transport": "stop_position", "railway": "stop", "subway": "yes"}}, {"type": "node", "id": 340262247, "lat": 40.0290192, "lon": 116.4119016, "tags": {"name": "\u5317\u82d1\u8def\u5317", "name:en": "Beiyuanlu North", "name:zh": "\u5317\u82d1\u8def\u5317", "public_transport": "station", "railway": "station", "station": "subway", "subway": "yes", "wikidata": "Q4881517"}}, {"type": "node", "id": 340262425, "lat": 40.0516265, "lon": 116.4061753, "tags": {"name": "\u7acb\u6c34\u6865", "name:en": "Lishuiqiao", "name:zh": "\u7acb\u6c34\u6865", "public_transport": "stop_position", "railway": "stop", "subway": "yes"}}, {"type": "node", "id": 340262426, "lat": 40.0651292, "lon": 116.4065409, "tags": {"name": "\u5929\u901a\u82d1\u5357", "name:en": "Tiantongyuan South", "name:zh": "\u5929\u901a\u82d1\u5357", "name:zh_pinyin": "ti\u0101nt\u014dngyu\u00e0nn\u00e1n", "public_transport": "stop_position", "railway": "stop", "subway": "yes"}}, {"type": "node", "id": 340262455, "lat": 40.0737767, "lon": 116.4066667, "tags": {"name": "\u5929\u901a\u82d1", "name:en": "Tiantongyuan", "name:zh": "\u5929\u901a\u82d1", "name:zh_pinyin": "ti\u0101nt\u014dngyu\u00e0n", "public_transport": "stop_position", "railway": "stop", "subway": "yes"}}, {"type": "node", "id": 340262543, "lat": 40.0820901, "lon": 116.4067882, "tags": {"name": "\u5929\u901a\u82d1\u5317", "name:en": "Tiantongyuan North", "name:zh": "\u5929\u901a\u82d1\u5317", "public_transport": "stop_position", "subway": "yes"}}, {"type": "node", "id": 340408841, "lat": 39.9756139, "lon": 116.3879627, "tags": {"name": "\u5317\u571f\u57ce", "name:en": "Beitucheng", "name:zh": "\u5317\u571f\u57ce", "public_transport": "stop_position", "railway": "stop", "subway": "yes"}}, {"type": "node", "id": 340409094, "lat": 39.9756562, "lon": 116.4112418, "tags": {"name": "\u60e0\u65b0\u897f\u8857\u5357\u53e3", "name:en": "Huixinxijie Nankou", "name:zh": "\u60e0\u65b0\u897f\u8857\u5357\u53e3", "public_transport": "stop_position", "railway": "stop", "subway": "yes"}}, {"type": "node", "id": 340409219, "lat": 39.9756283, "lon": 116.4315897, "tags": {"name": "\u828d\u836f\u5c45", "name:en": "Shaoyaoju", "name:zh": "\u828d\u836f\u5c45", "public_transport": "stop_position", "railway": "stop", "subway": "yes"}}, {"type": "node", "id": 340409286, "lat": 39.9712528, "lon": 116.4411408, "tags": {"name": "\u592a\u9633\u5bab", "name:en": "Taiyanggong", "name:zh": "\u592a\u9633\u5bab", "public_transport": "stop_position", "railway": "stop", "subway": "yes"}}, {"type": "node", "id": 340409366, "lat": 39.9481391, "lon": 116.4562051, "tags": {"name": "\u4eae\u9a6c\u6865", "name:en": "Liangmaqiao", "name:zh": "\u4eae\u9a6c\u6865", "public_transport": "stop_position", "railway": "stop", "subway": "yes"}}, {"type": "node", "id": 340409480, "lat": 39.9402483, "lon": 116.4561665, "tags": {"name": "\u519c\u4e1a\u5c55\u89c8\u9986", "name:en": "Agricultural Exhibition Center", "name:zh": "\u519c\u4e1a\u5c55\u89c8\u9986", "public_transport": "stop_position", "railway": "stop", "subway": "yes", "wikidata": "Q4693902"}}, {"type": "node", "id": 340409693, "lat": 39.9322532, "lon": 116.4553291, "tags": {"name": "\u56e2\u7ed3\u6e56", "name:en": "Tuanjiehu", "name:zh": "\u56e2\u7ed3\u6e56", "public_transport": "stop_position", "railway": "stop", "subway": "yes"}}, {"type": "node", "id": 340409955, "lat": 39.9159527, "lon": 116.4552625, "tags": {"name": "\u91d1\u53f0\u5915\u7167", "name:en": "Jintaixizhao", "name:zh": "\u91d1\u53f0\u5915\u7167", "public_transport": "stop_position", "railway": "stop", "subway": "yes"}}, {"type": "node", "id": 340410051, "lat": 39.8921702, "lon": 116.4551332, "tags": {"name": "\u53cc\u4e95", "name:en": "Shuangjing", "public_transport": "stop_position", "railway": "stop", "subway": "yes"}}, {"type": "node", "id": 340410090, "lat": 39.8830759, "lon": 116.4549817, "tags": {"name": "\u52b2\u677e", "name:en": "Jinsong", "name:zh": "\u52b2\u677e", "public_transport": "stop_position", "railway": "stop", "subway": "yes"}}, {"type": "node", "id": 340410434, "lat": 39.9750272, "lon": 116.374935, "tags": {"name": "\u5065\u5fb7\u95e8", "name:en": "Jiandemen", "name:zh": "\u5065\u5fb7\u95e8", "public_transport": "stop_position", "railway": "stop", "subway": "yes"}}, {"type": "node", "id": 340410501, "lat": 39.974843, "lon": 116.3630842, "tags": {"name": "\u7261\u4e39\u56ed", "name:en": "Mudanyuan", "name:zh": "\u7261\u4e39\u56ed", "public_transport": "stop_position", "railway": "stop", "subway": "yes"}}, {"type": "node", "id": 340410659, "lat": 39.9748033, "lon": 116.3477566, "tags": {"name": "\u897f\u571f\u57ce", "name:en": "Xitucheng", "name:zh": "\u897f\u571f\u57ce", "public_transport": "stop_position", "railway": "stop", "subway": "yes"}}, {"type": "node", "id": 340410668, "lat": 39.9750237, "lon": 116.3357849, "tags": {"name": "\u77e5\u6625\u8def", "name:en": "Zhichunlu", "name:zh": "\u77e5\u6625\u8def", "public_transport": "stop_position", "railway": "stop", "subway": "yes"}}, {"type": "node", "id": 340410815, "lat": 39.974909, "lon": 116.3229323, "tags": {"name": "\u77e5\u6625\u91cc", "name:en": "Zhichunli", "name:zh": "\u77e5\u6625\u91cc", "public_transport": "stop_position", "railway": "stop", "subway": "yes"}}, {"type": "node", "id": 340410824, "lat": 39.9743528, "lon": 116.300193, "tags": {"name": "\u82cf\u5dde\u8857", "name:en": "Suzhoujie", "name:zh": "\u82cf\u5dde\u8857", "public_transport": "stop_position", "railway": "stop", "subway": "yes"}}, {"type": "node", "id": 340410862, "lat": 39.9732909, "lon": 116.2875195, "tags": {"name": "\u5df4\u6c9f", "name:en": "Bagou", "name:zh": "\u5df4\u6c9f", "public_transport": "stop_position", "railway": "stop", "subway": "yes"}}, {"type": "node", "id": 342775913, "lat": 39.8746899, "lon": 116.4547366, "tags": {"bus": "yes", "highway": "bus_stop", "name": "\u6f58\u5bb6\u56ed\u6865", "name:zh": "\u6f58\u5bb6\u56ed\u6865", "public_transport": "stop_position"}}, {"type": "node", "id": 342954672, "lat": 39.8878086, "lon": 116.3640959, "tags": {"bus": "yes", "name": "\u83dc\u5e02\u53e3\u897f", "name:zh": "\u83dc\u5e02\u53e3\u897f", "public_transport": "stop_position"}}, {"type": "node", "id": 353122986, "lat": 40.0202655, "lon": 116.4735015, "tags": {"bus": "yes", "highway": "bus_stop", "name": "\u6765\u5e7f\u8425\u4e1c\u8def", "public_transport": "stop_position"}}, {"type": "node", "id": 366532998, "lat": 39.9315984, "lon": 116.2912043, "tags": {"bus": "yes", "name": "\u6148\u5bff\u5bfa\u6865", "name:zh": "\u6148\u5bff\u5bfa\u6865", "public_transport": "stop_position"}}, {"type": "node", "id": 366533000, "lat": 39.9371485, "lon": 116.2909428, "tags": {"bus": "yes", "name": "\u4e94\u8def", "name:zh": "\u4e94\u8def", "public_transport": "stop_position"}}, {"type": "node", "id": 366533005, "lat": 39.9414009, "lon": 116.2904359, "tags": {"bus": "yes", "name": "\u5584\u5bb6\u575f", "name:zh": "\u5584\u5bb6\u575f", "public_transport": "stop_position"}}, {"type": "node", "id": 366533008, "lat": 39.9456732, "lon": 116.2898443, "tags": {"bus": "yes", "name": "\u8f66\u9053\u6c9f\u6865", "name:zh": "\u8f66\u9053\u6c9f\u6865", "public_transport": "stop_position"}}, {"type": "node", "id": 366533615, "lat": 39.9367834, "lon": 116.2899517, "tags": {"bus": "yes", "name": "\u4e94\u8def", "name:zh": "\u4e94\u8def", "public_transport": "stop_position"}}, {"type": "node", "id": 380734202, "lat": 39.9831409, "lon": 116.2956978, "tags": {"bus": "yes", "highway": "bus_stop", "name": "\u6d77\u6dc0\u6865\u897f", "public_transport": "stop_position"}}, {"type": "node", "id": 382913485, "lat": 39.982258, "lon": 116.4670224, "tags": {"bus": "yes", "highway": "bus_stop", "name": "\u671b\u4eac\u533b\u9662", "name:zh": "\u671b\u4eac\u533b\u9662", "public_transport": "platform"}}, {"type": "node", "id": 382913486, "lat": 39.9816178, "lon": 116.4676778, "tags": {"bus": "yes", "highway": "bus_stop", "name": "\u671b\u4eac\u533b\u9662", "name:zh": "\u671b\u4eac\u533b\u9662", "public_transport": "platform"}}, {"type": "node", "id": 384341252, "lat": 39.8854559, "lon": 116.3088822, "tags": {"bus": "yes", "name": "\u516d\u91cc\u6865\u4e1c", "name:zh": "\u516d\u91cc\u6865\u4e1c", "public_transport": "stop_position"}}, {"type": "node", "id": 385074709, "lat": 39.8832783, "lon": 116.4537852, "tags": {"railway": "subway_entrance"}}, {"type": "node", "id": 385074712, "lat": 39.8832849, "lon": 116.4569609, "tags": {"railway": "subway_entrance"}}, {"type": "node", "id": 385074714, "lat": 39.8826262, "lon": 116.455725, "tags": {"railway": "subway_entrance"}}, {"type": "node", "id": 385074716, "lat": 39.8824945, "lon": 116.454695, "tags": {"railway": "subway_entrance"}}, {"type": "node", "id": 385095492, "lat": 39.8923609, "lon": 116.4378171, "tags": {"bus": "yes", "name": "\u5e7f\u6e20\u95e8", "name:zh": "\u5e7f\u6e20\u95e8", "public_transport": "stop_position"}}, {"type": "node", "id": 387155262, "lat": 39.911582, "lon": 116.3021253, "tags": {"bus": "yes", "name": "\u666e\u60e0\u5357\u91cc", "name:zh": "\u666e\u60e0\u5357\u91cc", "public_transport": "stop_position"}}, {"type": "node", "id": 414558595, "lat": 40.0269651, "lon": 116.4036122, "tags": {"bus": "yes", "highway": "bus_stop", "name": "\u4ef0\u5c71\u6865\u5317", "public_transport": "stop_position"}}, {"type": "node", "id": 487600864, "lat": 40.0343755, "lon": 116.3026504, "tags": {"bus": "yes", "description": "For Bus No. 476, 909, YT108", "highway": "bus_stop", "name": "\u4e0a\u5730\u4e09\u8857\u897f\u53e3", "name:en": "Shangdi Roundabout West Station", "public_transport": "platform"}}, {"type": "node", "id": 528589376, "lat": 39.8935826, "lon": 116.5208313, "tags": {"bus": "yes", "name": "\u671d\u9633\u534a\u58c1\u5e97\u5317", "name:zh": "\u671d\u9633\u534a\u58c1\u5e97\u5317", "public_transport": "stop_position"}}, {"type": "node", "id": 528601246, "lat": 40.0291959, "lon": 116.3530045, "tags": {"bus": "yes", "departures_board": "no", "highway": "bus_stop", "name": "\u6e05\u7f18\u4e1c\u91cc", "public_transport": "platform", "shelter": "yes"}}, {"type": "node", "id": 528821554, "lat": 39.9963379, "lon": 116.3751096, "tags": {"bus": "yes", "highway": "bus_stop", "name": "\u79d1\u5b66\u56ed\u5357\u91cc", "public_transport": "platform"}}, {"type": "node", "id": 528899758, "lat": 40.056526, "lon": 116.4020829, "tags": {"bus": "yes", "highway": "bus_stop", "name": "\u4e2d\u6ee9", "public_transport": "stop_position"}}, {"type": "node", "id": 528913962, "lat": 39.9982429, "lon": 116.3037029, "tags": {"name": "\u5706\u660e\u56ed", "name:en": "Yuanmingyuan Park", "name:zh": "\u5706\u660e\u56ed", "public_transport": "stop_position", "railway": "stop", "subway": "yes"}}, {"type": "node", "id": 528916026, "lat": 39.9966504, "lon": 116.2855053, "tags": {"name": "\u897f\u82d1", "name:en": "Xiyuan", "name:zh": "\u897f\u82d1", "public_transport": "stop_position", "railway": "stop", "subway": "yes"}}, {"type": "node", "id": 528916061, "lat": 40.001161, "lon": 116.2713357, "tags": {"name": "\u5317\u5bab\u95e8", "name:en": "Beigongmen", "name:zh": "\u5317\u5bab\u95e8", "public_transport": "stop_position", "railway": "stop", "subway": "yes"}}, {"type": "node", "id": 528916114, "lat": 40.0110268, "lon": 116.2640305, "tags": {"name": "\u5b89\u6cb3\u6865\u5317", "name:en": "Anheqiao North", "name:zh": "\u5b89\u6cb3\u6865\u5317", "public_transport": "stop_position", "railway": "stop", "subway": "yes"}}, {"type": "node", "id": 528922035, "lat": 39.9908074, "lon": 116.3095941, "tags": {"name": "\u5317\u4eac\u5927\u5b66\u4e1c\u95e8", "name:en": "East Gate of Peking University", "name:zh": "\u5317\u4eac\u5927\u5b66\u4e1c\u95e8", "public_transport": "stop_position", "railway": "stop", "subway": "yes"}}, {"type": "node", "id": 528922127, "lat": 39.9826925, "lon": 116.3102538, "tags": {"name": "\u4e2d\u5173\u6751", "name:en": "Zhongguancun", "name:zh": "\u4e2d\u5173\u6751", "public_transport": "stop_position", "railway": "stop", "subway": "yes"}}, {"type": "node", "id": 528925729, "lat": 39.965758, "lon": 116.3156202, "tags": {"name": "\u4eba\u6c11\u5927\u5b66", "name:en": "Renmin University", "name:zh": "\u4eba\u6c11\u5927\u5b66", "public_transport": "stop_position", "railway": "stop", "subway": "yes"}}, {"type": "node", "id": 528926456, "lat": 39.9563342, "lon": 116.3170676, "tags": {"name": "\u9b4f\u516c\u6751", "name:en": "Weigongcun", "name:zh": "\u9b4f\u516c\u6751", "public_transport": "stop_position", "railway": "stop", "subway": "yes"}}, {"type": "node", "id": 528927340, "lat": 39.9418236, "lon": 116.318865, "tags": {"name": "\u56fd\u5bb6\u56fe\u4e66\u9986", "name:en": "National Library", "name:zh": "\u56fd\u5bb6\u56fe\u4e66\u9986", "public_transport": "stop_position", "railway": "stop", "subway": "yes"}}, {"type": "node", "id": 528928174, "lat": 39.9368863, "lon": 116.3327167, "tags": {"name": "\u52a8\u7269\u56ed", "name:en": "Beijing Zoo", "name:zh": "\u52a8\u7269\u56ed", "public_transport": "stop_position", "railway": "stop", "subway": "yes"}}, {"type": "node", "id": 528928528, "lat": 39.9393811, "lon": 116.3613437, "tags": {"name": "\u65b0\u8857\u53e3", "name:en": "Xinjiekou", "name:zh": "\u65b0\u8857\u53e3", "public_transport": "stop_position", "railway": "stop", "subway": "yes"}}, {"type": "node", "id": 528928764, "lat": 39.9323177, "lon": 116.3663949, "tags": {"name": "\u5e73\u5b89\u91cc", "name:en": "Ping'anli", "name:zh": "\u5e73\u5b89\u91cc", "name:zh_pinyin": "P\u00edng\u0101nl\u012d", "public_transport": "stop_position", "railway": "stop", "subway": "yes"}}, {"type": "node", "id": 528928995, "lat": 39.9225541, "lon": 116.3667178, "tags": {"name": "\u897f\u56db", "name:en": "Xisi", "name:zh": "\u897f\u56db", "public_transport": "stop_position", "railway": "stop", "subway": "yes"}}, {"type": "node", "id": 528929127, "lat": 39.9149476, "lon": 116.3671636, "tags": {"name": "\u7075\u5883\u80e1\u540c", "name:en": "Lingjing Hutong", "name:zh": "\u7075\u5883\u80e1\u540c", "public_transport": "stop_position", "railway": "stop", "subway": "yes"}}, {"type": "node", "id": 528929965, "lat": 39.8879008, "lon": 116.3681094, "tags": {"name": "\u83dc\u5e02\u53e3", "name:zh": "\u83dc\u5e02\u53e3", "public_transport": "stop_position", "railway": "stop", "subway": "yes"}}, {"type": "node", "id": 528930289, "lat": 39.8774343, "lon": 116.368085, "tags": {"name:en": "Taoranting", "name:zh": "\u9676\u7136\u4ead", "public_transport": "stop_position", "railway": "stop", "subway": "yes", "wikidata": "Q5960410"}}, {"type": "node", "id": 528931158, "lat": 39.8634948, "lon": 116.3726414, "tags": {"name": "\u5317\u4eac\u5357\u7ad9", "name:de": "Peking S\u00fcdbahnhof", "name:en": "Beijing South Railway Station", "name:hu": "Peking D\u00e9li p\u00e1lyaudvar", "name:ja": "\u5317\u4eac\u5357\u99c5", "name:zh": "\u5317\u4eac\u5357\u7ad9", "public_transport": "stop_position", "railway": "stop", "subway": "yes"}}, {"type": "node", "id": 528931992, "lat": 39.8516387, "lon": 116.365093, "tags": {"name": "\u9a6c\u5bb6\u5821", "name:en": "Majiapu", "name:zh": "\u9a6c\u5bb6\u5821", "public_transport": "stop_position", "railway": "stop", "subway": "yes"}}, {"type": "node", "id": 528934416, "lat": 39.8444042, "lon": 116.364851, "tags": {"name": "\u89d2\u95e8\u897f", "name:en": "Jiaomen West", "name:zh": "\u89d2\u95e8\u897f", "name:zh_pinyin": "Ji\u0103om\u00e9n X\u012b", "public_transport": "stop_position", "railway": "stop", "subway": "yes"}}, {"type": "node", "id": 528934756, "lat": 39.8352652, "lon": 116.3646416, "tags": {"name": "\u516c\u76ca\u897f\u6865", "name:en": "Gongyixiqiao", "name:zh": "\u516c\u76ca\u897f\u6865", "public_transport": "stop_position", "railway": "stop", "subway": "yes"}}, {"type": "node", "id": 529345099, "lat": 39.9489294, "lon": 116.2772012, "tags": {"bus": "yes", "name": "\u9ec4\u5e84\u4e1c\u7ad9", "name:zh": "\u9ec4\u5e84\u4e1c\u7ad9", "public_transport": "stop_position"}}, {"type": "node", "id": 529514231, "lat": 39.8450552, "lon": 116.4295173, "tags": {"bus": "yes", "highway": "bus_stop", "name": "\u94dc\u5382", "public_transport": "platform"}}, {"type": "node", "id": 529514905, "lat": 39.8556701, "lon": 116.4394326, "tags": {"bus": "yes", "highway": "bus_stop", "name": "\u6210\u5bff\u5bfa\u8def\u5317\u53e3", "name:zh": "\u6210\u5bff\u5bfa\u8def\u5317\u53e3", "public_transport": "platform"}}, {"type": "node", "id": 529547520, "lat": 39.8801735, "lon": 116.2979592, "tags": {"bus": "yes", "highway": "bus_stop", "name": "\u516d\u91cc\u6865\u897f", "public_transport": "stop_position"}}, {"type": "node", "id": 530654578, "lat": 39.9288863, "lon": 116.2307597, "tags": {"bus": "yes", "highway": "bus_stop", "name": "\u4ec0\u574a\u9662", "public_transport": "stop_position"}}, {"type": "node", "id": 533640038, "lat": 39.9236909, "lon": 116.367604, "tags": {"railway": "subway_entrance", "ref": "B"}}, {"type": "node", "id": 533640060, "lat": 39.9237897, "lon": 116.3669087, "tags": {"railway": "subway_entrance", "ref": "A"}}, {"type": "node", "id": 533640293, "lat": 39.9221204, "lon": 116.3666573, "tags": {"railway": "subway_entrance", "ref": "D"}}, {"type": "node", "id": 533643087, "lat": 39.914212, "lon": 116.3677411, "tags": {"railway": "subway_entrance", "ref": "C"}}, {"type": "node", "id": 533643092, "lat": 39.9141523, "lon": 116.3670674, "tags": {"railway": "subway_entrance", "ref": "D"}}, {"type": "node", "id": 533643227, "lat": 39.9162195, "lon": 116.3670031, "tags": {"railway": "subway_entrance", "ref": "A"}}, {"type": "node", "id": 533645705, "lat": 39.9057212, "lon": 116.3699189, "tags": {"name": "\u897f\u5355", "name:en": "Xidan", "name:zh": "\u897f\u5355", "public_transport": "stop_position", "railway": "stop", "subway": "yes"}}, {"type": "node", "id": 533707711, "lat": 39.8701958, "lon": 116.4573852, "tags": {"bus": "yes", "highway": "bus_stop", "name": "\u9996\u90fd\u56fe\u4e66\u9986", "public_transport": "platform", "ref": "985852974"}}, {"type": "node", "id": 534246343, "lat": 39.8332422, "lon": 116.286499, "tags": {"bus": "yes", "highway": "bus_stop", "name": "\u79d1\u4e30\u6865\u5317", "public_transport": "platform"}}, {"type": "node", "id": 534246521, "lat": 39.829616, "lon": 116.3298608, "tags": {"bus": "yes", "highway": "bus_stop", "name": "\u9ec4\u571f\u5c97", "public_transport": "platform"}}, {"type": "node", "id": 534248402, "lat": 39.840155, "lon": 116.2506007, "tags": {"bus": "yes", "highway": "bus_stop", "name": "\u4eba\u6c11\u6751", "public_transport": "platform"}}, {"type": "node", "id": 534250862, "lat": 39.8498022, "lon": 116.2778228, "tags": {"bus": "yes", "highway": "bus_stop", "name": "\u6b63\u9633\u6865\u5317", "public_transport": "stop_position"}}, {"type": "node", "id": 534251537, "lat": 39.8493696, "lon": 116.2515248, "tags": {"bus": "yes", "highway": "bus_stop", "name": "\u5357\u4e94\u91cc\u5e97", "public_transport": "stop_position"}}, {"type": "node", "id": 534556684, "lat": 39.8455926, "lon": 116.221067, "tags": {"alt_name": "\u82a6\u6c9f\u65b0\u6865", "bus": "yes", "highway": "bus_stop", "name": "\u5362\u6c9f\u65b0\u6865", "public_transport": "platform"}}, {"type": "node", "id": 539246461, "lat": 39.8627813, "lon": 116.3697068}, {"type": "node", "id": 539246462, "lat": 39.8627353, "lon": 116.3697798}, {"type": "node", "id": 539246463, "lat": 39.8625981, "lon": 116.3699451}, {"type": "node", "id": 539246464, "lat": 39.8628867, "lon": 116.3695825}, {"type": "node", "id": 539246465, "lat": 39.862659, "lon": 116.3698695}, {"type": "node", "id": 539246466, "lat": 39.8617675, "lon": 116.3711159}, {"type": "node", "id": 539246467, "lat": 39.8616212, "lon": 116.3712944}, {"type": "node", "id": 539246468, "lat": 39.8618361, "lon": 116.3713365}, {"type": "node", "id": 539246469, "lat": 39.8616969, "lon": 116.3712053}, {"type": "node", "id": 539246470, "lat": 39.8615591, "lon": 116.3713647}, {"type": "node", "id": 539246471, "lat": 39.8618445, "lon": 116.3710262}, {"type": "node", "id": 539246472, "lat": 39.8621816, "lon": 116.3706268}, {"type": "node", "id": 539246473, "lat": 39.8624908, "lon": 116.3704268}, {"type": "node", "id": 539246474, "lat": 39.8623094, "lon": 116.3705405}, {"type": "node", "id": 539246475, "lat": 39.8622561, "lon": 116.3705393}, {"type": "node", "id": 539246476, "lat": 39.8625272, "lon": 116.3702187}, {"type": "node", "id": 539246478, "lat": 39.8623947, "lon": 116.3703771}, {"type": "node", "id": 539246479, "lat": 39.8625174, "lon": 116.3700404}, {"type": "node", "id": 539246480, "lat": 39.8624524, "lon": 116.3703067}, {"type": "node", "id": 539246481, "lat": 39.8623157, "lon": 116.3704703}, {"type": "node", "id": 539246482, "lat": 39.8621611, "lon": 116.37069}, {"type": "node", "id": 539246483, "lat": 39.861903, "lon": 116.3709484}, {"type": "node", "id": 539246484, "lat": 39.8620285, "lon": 116.3708762}, {"type": "node", "id": 539246485, "lat": 39.8619819, "lon": 116.3708559}, {"type": "node", "id": 539246486, "lat": 39.8621236, "lon": 116.3707034}, {"type": "node", "id": 539246487, "lat": 39.8620429, "lon": 116.3707981}, {"type": "node", "id": 539246488, "lat": 39.8619201, "lon": 116.3710767}, {"type": "node", "id": 539246489, "lat": 39.8614149, "lon": 116.3715203}, {"type": "node", "id": 539246490, "lat": 39.8614822, "lon": 116.3714554}, {"type": "node", "id": 539246491, "lat": 39.8617592, "lon": 116.3719426}, {"type": "node", "id": 539246492, "lat": 39.8617697, "lon": 116.3723618}, {"type": "node", "id": 539246493, "lat": 39.8612782, "lon": 116.3716933}, {"type": "node", "id": 539246494, "lat": 39.8613368, "lon": 116.3716122}, {"type": "node", "id": 539246495, "lat": 39.8612004, "lon": 116.3717849}, {"type": "node", "id": 539246496, "lat": 39.8617767, "lon": 116.371619}, {"type": "node", "id": 539246497, "lat": 39.8629132, "lon": 116.3702944}, {"type": "node", "id": 539246498, "lat": 39.8637835, "lon": 116.3705141}, {"type": "node", "id": 539246499, "lat": 39.8626858, "lon": 116.3703437}, {"type": "node", "id": 539246500, "lat": 39.8631979, "lon": 116.3703045}, {"type": "node", "id": 539246501, "lat": 39.863445, "lon": 116.3703635}, {"type": "node", "id": 539246503, "lat": 39.8622139, "lon": 116.3738019}, {"type": "node", "id": 539246504, "lat": 39.8618501, "lon": 116.3727948}, {"type": "node", "id": 539246506, "lat": 39.8635291, "lon": 116.3751462}, {"type": "node", "id": 539246507, "lat": 39.861997, "lon": 116.373255}, {"type": "node", "id": 539246508, "lat": 39.8631654, "lon": 116.3749138}, {"type": "node", "id": 539246509, "lat": 39.8624833, "lon": 116.3742394}, {"type": "node", "id": 539246510, "lat": 39.8638125, "lon": 116.3752784}, {"type": "node", "id": 539246511, "lat": 39.8628051, "lon": 116.374613}, {"type": "node", "id": 539246512, "lat": 39.8644642, "lon": 116.3710719}, {"type": "node", "id": 539246513, "lat": 39.8650752, "lon": 116.3719608}, {"type": "node", "id": 539246514, "lat": 39.8652711, "lon": 116.3724028}, {"type": "node", "id": 539246515, "lat": 39.8641508, "lon": 116.3707556}, {"type": "node", "id": 539246516, "lat": 39.8648126, "lon": 116.3714875}, {"type": "node", "id": 539246517, "lat": 39.8645995, "lon": 116.3753103}, {"type": "node", "id": 539246518, "lat": 39.8640853, "lon": 116.3753422}, {"type": "node", "id": 539246519, "lat": 39.8643721, "lon": 116.3753604}, {"type": "node", "id": 539246520, "lat": 39.8652501, "lon": 116.3747817}, {"type": "node", "id": 539246521, "lat": 39.8645678, "lon": 116.3753468}, {"type": "node", "id": 539246522, "lat": 39.8649599, "lon": 116.3751657}, {"type": "node", "id": 539246523, "lat": 39.8650163, "lon": 116.3750953}, {"type": "node", "id": 539246524, "lat": 39.8652385, "lon": 116.3748462}, {"type": "node", "id": 539246525, "lat": 39.8651634, "lon": 116.3749345}, {"type": "node", "id": 539246526, "lat": 39.8649528, "lon": 116.3751052}, {"type": "node", "id": 539246527, "lat": 39.8648804, "lon": 116.3752589}, {"type": "node", "id": 539246528, "lat": 39.8647424, "lon": 116.3754206}, {"type": "node", "id": 539246529, "lat": 39.8647744, "lon": 116.3752328}, {"type": "node", "id": 539246530, "lat": 39.8648233, "lon": 116.3753176}, {"type": "node", "id": 539246531, "lat": 39.8651207, "lon": 116.3749457}, {"type": "node", "id": 539246532, "lat": 39.8650964, "lon": 116.3750013}, {"type": "node", "id": 539246533, "lat": 39.865495, "lon": 116.3733416}, {"type": "node", "id": 539246534, "lat": 39.8655159, "lon": 116.3737016}, {"type": "node", "id": 539246535, "lat": 39.865425, "lon": 116.3729224}, {"type": "node", "id": 539246536, "lat": 39.865495, "lon": 116.374007}, {"type": "node", "id": 539246538, "lat": 39.8660014, "lon": 116.3740649}, {"type": "node", "id": 539246539, "lat": 39.8654252, "lon": 116.3745932}, {"type": "node", "id": 539246540, "lat": 39.8657645, "lon": 116.3743501}, {"type": "node", "id": 539246541, "lat": 39.8658415, "lon": 116.3742595}, {"type": "node", "id": 539246542, "lat": 39.8657353, "lon": 116.3744568}, {"type": "node", "id": 539246543, "lat": 39.8656552, "lon": 116.3745513}, {"type": "node", "id": 539246544, "lat": 39.8655006, "lon": 116.3745044}, {"type": "node", "id": 539246545, "lat": 39.865439, "lon": 116.3743123}, {"type": "node", "id": 539246546, "lat": 39.8653727, "lon": 116.3746689}, {"type": "node", "id": 539246547, "lat": 39.8658953, "lon": 116.37419}, {"type": "node", "id": 539246548, "lat": 39.865293, "lon": 116.3747628}, {"type": "node", "id": 539246549, "lat": 39.865355, "lon": 116.3745811}, {"type": "node", "id": 539246550, "lat": 39.8640777, "lon": 116.3759314}, {"type": "node", "id": 539246551, "lat": 39.8644927, "lon": 116.3754352}, {"type": "node", "id": 539246552, "lat": 39.8642148, "lon": 116.3757645}, {"type": "node", "id": 539246553, "lat": 39.8642923, "lon": 116.3756734}, {"type": "node", "id": 539246554, "lat": 39.8644389, "lon": 116.375511}, {"type": "node", "id": 539246555, "lat": 39.8643626, "lon": 116.3756009}, {"type": "node", "id": 539246556, "lat": 39.864156, "lon": 116.3758391}, {"type": "node", "id": 539260172, "lat": 39.8634831, "lon": 116.3723994, "tags": {"alt_name": "\u5317\u4eac\u5357\u7ad9;Beijing South;Beijing South Railway Station;Beijingnan Railway Station", "name": "\u5317\u4eac\u5357", "name:en": "Beijingnan", "name:zh": "\u5317\u4eac\u5357", "note": "\u4eac\u6caa K10+925 \u4eac\u6d25\u57ce\u9645 K1+105 \u4eac\u6caa\u9ad8\u94c1 K1+086 \u4eac\u5357\u81f3\u52a8\u8f66\u6bb5A K0+639 \u4eac\u5357\u81f3\u52a8\u8f66\u6bb5B K0+645", "operator": "\u4e2d\u56fd\u94c1\u8def\u5317\u4eac\u5c40", "public_transport": "station", "railway": "station", "railway:position": "10.925", "railway:ref": "10010", "train": "yes", "wikidata": "Q163962", "wikipedia": "zh:\u5317\u4eac\u5357\u7ad9"}}, {"type": "node", "id": 563686304, "lat": 39.9852116, "lon": 116.2562785, "tags": {"bus": "yes", "highway": "bus_stop", "name": "\u9890\u548c\u56ed\u897f\u95e8", "name:en": "West Gate of Summer Palace", "public_transport": "stop_position"}}, {"type": "node", "id": 563686305, "lat": 39.984952, "lon": 116.25597, "tags": {"bus": "yes", "highway": "bus_stop", "name": "\u9890\u548c\u56ed\u897f\u95e8", "name:en": "West Gate of Summer Palace", "public_transport": "stop_position"}}, {"type": "node", "id": 563686310, "lat": 39.9828302, "lon": 116.2535636, "tags": {"bus": "yes", "highway": "bus_stop", "name": "\u5317\u575e\u6751", "public_transport": "stop_position"}}, {"type": "node", "id": 583038331, "lat": 39.9008803, "lon": 116.418569}, {"type": "node", "id": 583038333, "lat": 39.9006958, "lon": 116.4185746}, {"type": "node", "id": 583038334, "lat": 39.9005156, "lon": 116.418569}, {"type": "node", "id": 583038335, "lat": 39.9003054, "lon": 116.4185774}, {"type": "node", "id": 583038336, "lat": 39.9010562, "lon": 116.4185662}, {"type": "node", "id": 583038337, "lat": 39.9014767, "lon": 116.418569}, {"type": "node", "id": 583038338, "lat": 39.9012965, "lon": 116.4185634}, {"type": "node", "id": 583038339, "lat": 39.9016827, "lon": 116.418569}, {"type": "node", "id": 583038340, "lat": 39.9009704, "lon": 116.4234684}, {"type": "node", "id": 583038341, "lat": 39.9007859, "lon": 116.4234796}, {"type": "node", "id": 583038342, "lat": 39.9006186, "lon": 116.423474}, {"type": "node", "id": 583038343, "lat": 39.9004208, "lon": 116.4234505}, {"type": "node", "id": 583038344, "lat": 39.9011549, "lon": 116.4234656}, {"type": "node", "id": 583038346, "lat": 39.9015668, "lon": 116.423474}, {"type": "node", "id": 583038347, "lat": 39.9013823, "lon": 116.4234684}, {"type": "node", "id": 583038349, "lat": 39.9017513, "lon": 116.4234628}, {"type": "node", "id": 586467392, "lat": 39.9652633, "lon": 116.3164109, "tags": {"railway": "subway_entrance", "ref": "C"}}, {"type": "node", "id": 604775353, "lat": 39.8790007, "lon": 116.2903174, "tags": {"bus": "yes", "highway": "bus_stop", "name": "\u5c0f\u4e95\u6865\u4e1c", "public_transport": "stop_position"}}, {"type": "node", "id": 604939240, "lat": 39.9919737, "lon": 116.2904017, "tags": {"bus": "yes", "highway": "bus_stop", "name": "\u897f\u82d1\u533b\u9662", "public_transport": "stop_position"}}, {"type": "node", "id": 605813130, "lat": 40.0425367, "lon": 116.2536404, "tags": {"bus": "yes", "highway": "bus_stop", "name": "\u897f\u5317\u65fa\u4e1c\u6751", "public_transport": "stop_position"}}, {"type": "node", "id": 605822257, "lat": 40.0495845, "lon": 116.2510479, "tags": {"bus": "yes", "highway": "bus_stop", "name": "\u767e\u671b\u65b0\u57ce", "public_transport": "stop_position"}}, {"type": "node", "id": 605962270, "lat": 39.8240704, "lon": 116.3397567, "tags": {"bus": "yes", "highway": "bus_stop", "name": "\u65b0\u53d1\u5730\u6865\u5317", "public_transport": "platform"}}, {"type": "node", "id": 607326497, "lat": 39.9794086, "lon": 116.200997, "tags": {"bus": "yes", "highway": "bus_stop", "name": "\u7ea2\u65d7\u6751", "public_transport": "stop_position"}}, {"type": "node", "id": 656086850, "lat": 39.9383471, "lon": 116.3416789, "tags": {"bus": "yes", "name": "\u897f\u76f4\u95e8\u5916", "name:zh": "\u897f\u76f4\u95e8\u5916", "public_transport": "stop_position"}}, {"type": "node", "id": 656087239, "lat": 39.938229, "lon": 116.3431143, "tags": {"bus": "yes", "name": "\u897f\u76f4\u95e8\u5916", "name:zh": "\u897f\u76f4\u95e8\u5916", "public_transport": "stop_position"}}, {"type": "node", "id": 701230220, "lat": 39.8987186, "lon": 116.3916395, "tags": {"name": "\u524d\u95e8", "name:en": "Qianmen", "name:ru": "\u0426\u044f\u043d\u044c\u043c\u044d\u043d\u044c", "name:zh": "\u524d\u95e8", "name:zh_pinyin": "Qi\u00e1nm\u00e9n", "public_transport": "stop_position", "railway": "stop", "subway": "yes", "wikidata": "Q847934", "wikipedia:zh": "\u524d\u95e8\u7ad9"}}, {"type": "node", "id": 701718853, "lat": 40.0043624, "lon": 116.3906778, "tags": {"bus": "yes", "highway": "bus_stop", "name": "\u4e2d\u56fd\u79d1\u6280\u9986\u897f\u95e8", "public_transport": "platform"}}, {"type": "node", "id": 733860073, "lat": 39.9171876, "lon": 116.4059269, "tags": {"name": "\u706f\u5e02\u897f\u53e3", "public_transport": "stop_position"}}, {"type": "node", "id": 734418729, "lat": 39.8834205, "lon": 116.3921402, "tags": {"bus": "yes", "name": "\u5929\u6865", "name:zh": "\u5929\u6865", "public_transport": "stop_position"}}, {"type": "node", "id": 734419318, "lat": 39.8828612, "lon": 116.3573431, "tags": {"bus": "yes", "name": "\u725b\u8857\u793c\u62dc\u5bfa", "name:zh": "\u725b\u8857\u793c\u62dc\u5bfa", "public_transport": "stop_position"}}, {"type": "node", "id": 734521002, "lat": 39.8868738, "lon": 116.4052292, "tags": {"bus": "yes", "name": "\u5929\u575b\u5317\u95e8", "name:zh": "\u5929\u575b\u5317\u95e8", "public_transport": "stop_position"}}, {"type": "node", "id": 737043848, "lat": 40.0068577, "lon": 116.358454, "tags": {"bus": "yes", "highway": "bus_stop", "name": "\u53cc\u6cc9\u5821", "public_transport": "platform"}}, {"type": "node", "id": 737043850, "lat": 40.0039486, "lon": 116.3616208, "tags": {"bus": "yes", "highway": "bus_stop", "name": "\u53cc\u6cc9\u5821\u5357", "public_transport": "platform"}}, {"type": "node", "id": 737043854, "lat": 40.0041351, "lon": 116.3606088, "tags": {"bus": "yes", "highway": "bus_stop", "name": "\u53cc\u6cc9\u5821\u5357", "public_transport": "platform"}}, {"type": "node", "id": 737043856, "lat": 39.9989163, "lon": 116.364512, "tags": {"bus": "yes", "highway": "bus_stop", "name": "\u5317\u6c99\u6ee9\u6865\u5357", "public_transport": "platform"}}, {"type": "node", "id": 737043858, "lat": 39.9997481, "lon": 116.3646464, "tags": {"bus": "yes", "highway": "bus_stop", "name": "\u5317\u6c99\u6ee9\u6865\u5357", "public_transport": "platform"}}, {"type": "node", "id": 737043871, "lat": 40.0086951, "lon": 116.3577843, "tags": {"bus": "yes", "highway": "bus_stop", "name": "\u53cc\u6cc9\u5821", "public_transport": "platform"}}, {"type": "node", "id": 737186928, "lat": 39.9185475, "lon": 116.3506299, "tags": {"bench": "yes", "bus": "yes", "covered": "yes", "highway": "bus_stop", "name": "\u961c\u6210\u95e8\u5357", "name:zh": "\u961c\u6210\u95e8\u5357", "public_transport": "platform"}}, {"type": "node", "id": 737194931, "lat": 39.9209433, "lon": 116.3481607, "tags": {"bus": "yes", "name": "\u961c\u6210\u95e8", "name:zh": "\u961c\u6210\u95e8", "public_transport": "stop_position"}}, {"type": "node", "id": 746502248, "lat": 39.9699668, "lon": 116.4014014, "tags": {"bus": "yes", "name": "\u5b89\u8d1e\u6865\u5317", "name:zh": "\u5b89\u8d1e\u6865\u5317", "public_transport": "stop_position"}}, {"type": "node", "id": 746856415, "lat": 39.9606016, "lon": 116.4029287, "tags": {"bus": "yes", "highway": "bus_stop", "name": "\u5c0f\u9ec4\u5e84", "public_transport": "platform"}}, {"type": "node", "id": 754517127, "lat": 39.9310977, "lon": 116.3161939, "tags": {"bus": "yes", "name": "\u5916\u6587\u5370\u5237\u5382", "public_transport": "stop_position"}}, {"type": "node", "id": 779049518, "lat": 40.0335243, "lon": 116.357691, "tags": {"bus": "yes", "highway": "bus_stop", "name": "\u6c38\u6cf0\u897f\u91cc", "public_transport": "platform"}}, {"type": "node", "id": 861542616, "lat": 39.9922128, "lon": 116.3315516}, {"type": "node", "id": 861542620, "lat": 39.9922184, "lon": 116.3317922}, {"type": "node", "id": 861542622, "lat": 39.9909642, "lon": 116.3318338}, {"type": "node", "id": 861542623, "lat": 39.9909547, "lon": 116.3316019}, {"type": "node", "id": 861553688, "lat": 39.9758321, "lon": 116.3339444}, {"type": "node", "id": 861553690, "lat": 39.9745145, "lon": 116.3341755}, {"type": "node", "id": 861553691, "lat": 39.9744874, "lon": 116.3338417}, {"type": "node", "id": 861553694, "lat": 39.9758004, "lon": 116.3336242}, {"type": "node", "id": 861558070, "lat": 39.9658101, "lon": 116.3388127}, {"type": "node", "id": 861558073, "lat": 39.9646984, "lon": 116.3389446}, {"type": "node", "id": 861558075, "lat": 39.9647163, "lon": 116.3392011}, {"type": "node", "id": 861558077, "lat": 39.9658279, "lon": 116.3390693}, {"type": "node", "id": 861562755, "lat": 39.9413156, "lon": 116.3464743}, {"type": "node", "id": 862609709, "lat": 40.0312048, "lon": 116.3142032}, {"type": "node", "id": 862609711, "lat": 40.0322564, "lon": 116.3137848}, {"type": "node", "id": 862609717, "lat": 40.0322978, "lon": 116.3139672}, {"type": "node", "id": 862609721, "lat": 40.031252, "lon": 116.3143923}, {"type": "node", "id": 862618327, "lat": 40.0694797, "lon": 116.312465}, {"type": "node", "id": 862618329, "lat": 40.0694694, "lon": 116.3139399}, {"type": "node", "id": 862618330, "lat": 40.0696562, "lon": 116.3139398}, {"type": "node", "id": 862618331, "lat": 40.0696685, "lon": 116.3124652}, {"type": "node", "id": 862628854, "lat": 40.0690462, "lon": 116.3538448}, {"type": "node", "id": 862628858, "lat": 40.0690396, "lon": 116.355295}, {"type": "node", "id": 862628863, "lat": 40.0693272, "lon": 116.3552972}, {"type": "node", "id": 862628867, "lat": 40.0693277, "lon": 116.3551974}, {"type": "node", "id": 862628871, "lat": 40.0694433, "lon": 116.3551983}, {"type": "node", "id": 862628874, "lat": 40.0694453, "lon": 116.3547631}, {"type": "node", "id": 862628877, "lat": 40.0695338, "lon": 116.3547637}, {"type": "node", "id": 862628880, "lat": 40.0695355, "lon": 116.3543936}, {"type": "node", "id": 862628885, "lat": 40.0694433, "lon": 116.3543928}, {"type": "node", "id": 862628889, "lat": 40.0694453, "lon": 116.3539592}, {"type": "node", "id": 862628898, "lat": 40.0693373, "lon": 116.3539583}, {"type": "node", "id": 862628905, "lat": 40.0693378, "lon": 116.3538471}, {"type": "node", "id": 862637166, "lat": 40.0510438, "lon": 116.4056357}, {"type": "node", "id": 862637171, "lat": 40.0512097, "lon": 116.4057574}, {"type": "node", "id": 862637175, "lat": 40.0517954, "lon": 116.4044608}, {"type": "node", "id": 862672246, "lat": 39.9762128, "lon": 116.4297994, "tags": {"name": "B", "railway": "subway_entrance"}}, {"type": "node", "id": 862674463, "lat": 39.9663961, "lon": 116.4254977}, {"type": "node", "id": 862674465, "lat": 39.9664008, "lon": 116.4257828}, {"type": "node", "id": 862674470, "lat": 39.9675624, "lon": 116.4257425}, {"type": "node", "id": 862676612, "lat": 39.9562295, "lon": 116.4266098}, {"type": "node", "id": 862676614, "lat": 39.9562541, "lon": 116.4268351}, {"type": "node", "id": 862676618, "lat": 39.957389, "lon": 116.4266205}, {"type": "node", "id": 862676620, "lat": 39.9573644, "lon": 116.4263952}, {"type": "node", "id": 872047433, "lat": 40.0742288, "lon": 116.3141732, "tags": {"bus": "yes", "highway": "bus_stop", "name": "\u5317\u90ca\u519c\u573a\u6865\u4e1c", "public_transport": "platform"}}, {"type": "node", "id": 910168396, "lat": 39.9373094, "lon": 116.3320146, "tags": {"railway": "subway_entrance", "wheelchair": "yes"}}, {"type": "node", "id": 922948491, "lat": 39.9319734, "lon": 116.4290011, "tags": {"name": "Dong Si Shi Tiao Line 2 Exit C", "railway": "subway_entrance", "ref": "C"}}, {"type": "node", "id": 978266073, "lat": 39.9338506, "lon": 116.3043121}, {"type": "node", "id": 978266098, "lat": 39.9338538, "lon": 116.3039622}, {"type": "node", "id": 978266243, "lat": 39.938624, "lon": 116.3109172, "tags": {"bus": "yes", "name": "\u7d2b\u7af9\u9662\u5357\u95e8", "public_transport": "stop_position"}}, {"type": "node", "id": 981019245, "lat": 39.937843, "lon": 116.3125094, "tags": {"bus": "yes", "name": "\u7d2b\u7af9\u9662\u5357\u95e8", "public_transport": "stop_position"}}, {"type": "node", "id": 984114545, "lat": 39.8876319, "lon": 116.4245246, "tags": {"bus": "yes", "highway": "bus_stop", "name": "\u5e78\u798f\u5927\u8857", "name:zh": "\u5e78\u798f\u5927\u8857", "public_transport": "platform"}}, {"type": "node", "id": 1038275198, "lat": 39.9072361, "lon": 116.3064771, "tags": {"bus": "yes", "name": "\u516c\u4e3b\u575f\u4e1c", "name:zh": "\u516c\u4e3b\u575f\u4e1c", "public_transport": "stop_position"}}, {"type": "node", "id": 1074413501, "lat": 39.8056619, "lon": 116.4846456, "tags": {"name": "\u4ea6\u5e84\u6587\u5316\u56ed", "name:en": "Yizhuang Culture Park", "name:zh": "\u4ea6\u5e84\u6587\u5316\u56ed", "name:zh_pinyin": "Y\u00eczhu\u0101ng W\u00e9nhu\u00e0yu\u00e1n", "public_transport": "stop_position", "railway": "stop", "subway": "yes"}}, {"type": "node", "id": 1074413543, "lat": 39.8017621, "lon": 116.474259, "tags": {"name": "\u4ea6\u5e84\u6865", "name:en": "Yizhuangqiao", "name:zh": "\u4ea6\u5e84\u6865", "name:zh_pinyin": "Y\u00eczhu\u0101ngqi\u00e1o", "public_transport": "stop_position", "railway": "stop", "subway": "yes", "wikidata": "Q5936835"}}, {"type": "node", "id": 1074413615, "lat": 39.8056065, "lon": 116.4547113, "tags": {"name": "\u65e7\u5bab", "name:en": "Jiugong", "name:zh": "\u65e7\u5bab", "name:zh_pinyin": "Ji\u00f9g\u014dng", "public_transport": "stop_position", "railway": "stop", "subway": "yes", "wikidata": "Q5935707"}}, {"type": "node", "id": 1074447567, "lat": 40.0833411, "lon": 116.5519363, "tags": {"name": "\u82b1\u68a8\u574e", "name:en": "Hualikan", "name:zh": "\u82b1\u68a8\u574e", "name:zh_pinyin": "Hu\u0101l\u00edk\u0103n", "public_transport": "stop_position", "railway": "stop", "subway": "yes", "wikidata": "Q5937712"}}, {"type": "node", "id": 1074447761, "lat": 40.0688967, "lon": 116.549457, "tags": {"name": "\u56fd\u5c55", "name:en": "China International Exhibition Center", "name:zh": "\u56fd\u5c55", "name:zh_pinyin": "Gu\u00f3zh\u0103n", "public_transport": "stop_position", "railway": "stop", "subway": "yes", "wikidata": "Q5099743"}}, {"type": "node", "id": 1074447770, "lat": 40.0439007, "lon": 116.5289009, "tags": {"name": "\u5b59\u6cb3", "name:en": "Sunhe", "name:zh": "\u5b59\u6cb3", "name:zh_pinyin": "S\u016bnh\u00e9", "public_transport": "stop_position", "railway": "stop", "subway": "yes"}}, {"type": "node", "id": 1074489072, "lat": 40.0517623, "lon": 116.3002779, "tags": {"name": "\u897f\u4e8c\u65d7", "name:en": "Xi'erqi", "name:zh": "\u897f\u4e8c\u65d7", "public_transport": "stop_position", "railway": "stop", "subway": "yes"}}, {"type": "node", "id": 1078854872, "lat": 40.0019105, "lon": 116.4808157, "tags": {"name": "\u671b\u4eac\u4e1c", "name:en": "Wangjing East", "name:zh": "\u671b\u4eac\u4e1c", "name:zh_pinyin": "W\u00e0ngj\u012bngd\u014dng", "public_transport": "stop_position", "railway": "stop", "subway": "yes"}}, {"type": "node", "id": 1078854875, "lat": 40.0325127, "lon": 116.498178, "tags": {"name": "\u9a6c\u6cc9\u8425", "name:en": "Maquanying", "name:zh": "\u9a6c\u6cc9\u8425", "name:zh_pinyin": "M\u0103qu\u00e1ny\u00edng", "public_transport": "stop_position", "railway": "stop", "ref": "\u9a6c\u6cc9\u8425", "subway": "yes"}}, {"type": "node", "id": 1078854898, "lat": 40.0205687, "lon": 116.4868449, "tags": {"name": "\u5d14\u5404\u5e84", "name:en": "Cuigezhuang", "name:zh": "\u5d14\u5404\u5e84", "name:zh_pinyin": "Cu\u012bg\u00e8zhu\u0101ng", "public_transport": "stop_position", "railway": "stop", "subway": "yes", "wikidata": "Q5192742"}}, {"type": "node", "id": 1078854904, "lat": 39.9946808, "lon": 116.4438798, "tags": {"name": "\u671b\u4eac\u897f", "name:en": "Wangjing West", "name:zh": "\u671b\u4eac\u897f", "public_transport": "stop_position", "railway": "stop", "subway": "yes"}}, {"type": "node", "id": 1078854911, "lat": 39.9966524, "lon": 116.4634277, "tags": {"name": "\u671b\u4eac", "name:en": "Wangjing", "public_transport": "stop_position", "railway": "stop", "subway": "yes"}}, {"type": "node", "id": 1080681418, "lat": 39.8111625, "lon": 116.3593771, "tags": {"name": "\u65b0\u5bab", "name:en": "Xin'Gong", "name:zh": "\u65b0\u5bab", "name:zh_pinyin": "X\u012bng\u014dng", "public_transport": "stop_position", "railway": "stop", "subway": "yes"}}, {"type": "node", "id": 1081987104, "lat": 39.8068121, "lon": 116.2860669, "tags": {"name": "B", "railway": "subway_entrance"}}, {"type": "node", "id": 1081998168, "lat": 39.8115092, "lon": 116.359845, "tags": {"railway": "subway_entrance", "ref": "B"}}, {"type": "node", "id": 1081998172, "lat": 39.8114209, "lon": 116.3589402, "tags": {"railway": "subway_entrance", "ref": "A"}}, {"type": "node", "id": 1085309402, "lat": 39.9390927, "lon": 116.3493268, "tags": {"name": "\u897f\u76f4\u95e8", "name:en": "Xizhimen", "name:zh": "\u897f\u76f4\u95e8", "public_transport": "stop_position", "railway": "stop", "subway": "yes"}}, {"type": "node", "id": 1085405470, "lat": 39.8064689, "lon": 116.2854558, "tags": {"name": "\u5927\u8446\u53f0", "name:en": "Dabaotai", "name:zh": "\u5927\u8446\u53f0", "public_transport": "stop_position", "railway": "stop", "subway": "yes", "wikidata": "Q5207411"}}, {"type": "node", "id": 1085405476, "lat": 39.8067423, "lon": 116.2865341}, {"type": "node", "id": 1085405507, "lat": 39.8059441, "lon": 116.2844564}, {"type": "node", "id": 1085405563, "lat": 39.8066928, "lon": 116.2859972}, {"type": "node", "id": 1085405633, "lat": 39.8065883, "lon": 116.2861923, "tags": {"name": "B", "railway": "subway_entrance"}}, {"type": "node", "id": 1085405648, "lat": 39.8069338, "lon": 116.2864094}, {"type": "node", "id": 1085405665, "lat": 39.8062675, "lon": 116.2849005}, {"type": "node", "id": 1085405672, "lat": 39.8066355, "lon": 116.2860388}, {"type": "node", "id": 1087874465, "lat": 40.052199, "lon": 116.2999632}, {"type": "node", "id": 1087874467, "lat": 40.0512847, "lon": 116.3006752}, {"type": "node", "id": 1087874470, "lat": 40.0521308, "lon": 116.2997325}, {"type": "node", "id": 1087874475, "lat": 40.0512833, "lon": 116.3005815}, {"type": "node", "id": 1087874477, "lat": 40.0522352, "lon": 116.3000784}, {"type": "node", "id": 1087874485, "lat": 40.051225, "lon": 116.3003965}, {"type": "node", "id": 1087874488, "lat": 40.0521769, "lon": 116.2998934}, {"type": "node", "id": 1087874493, "lat": 40.0521466, "lon": 116.2996225}, {"type": "node", "id": 1087874499, "lat": 40.0511283, "lon": 116.3001696}, {"type": "node", "id": 1087874500, "lat": 40.0511807, "lon": 116.3002416}, {"type": "node", "id": 1087874502, "lat": 40.0523041, "lon": 116.300131}, {"type": "node", "id": 1087874503, "lat": 40.051247, "lon": 116.3004663}, {"type": "node", "id": 1087929100, "lat": 39.8061356, "lon": 116.2843317}, {"type": "node", "id": 1088228032, "lat": 39.8062092, "lon": 116.2849335}, {"type": "node", "id": 1090671739, "lat": 39.9675542, "lon": 116.4254577}, {"type": "node", "id": 1090686533, "lat": 39.939608, "lon": 116.3471024}, {"type": "node", "id": 1090686549, "lat": 39.9396897, "lon": 116.3475366}, {"type": "node", "id": 1090686552, "lat": 39.9413998, "lon": 116.3468356}, {"type": "node", "id": 1093286172, "lat": 39.9658086, "lon": 116.3389928}, {"type": "node", "id": 1093286174, "lat": 39.9647217, "lon": 116.3391212}, {"type": "node", "id": 1093387450, "lat": 39.9909943, "lon": 116.3316716}, {"type": "node", "id": 1093387452, "lat": 40.0696124, "lon": 116.3138648}, {"type": "node", "id": 1093387454, "lat": 40.0695287, "lon": 116.312518}, {"type": "node", "id": 1093387472, "lat": 40.0692318, "lon": 116.3539422}, {"type": "node", "id": 1093387475, "lat": 40.051635, "lon": 116.4044156}, {"type": "node", "id": 1093387477, "lat": 40.031233, "lon": 116.3142574}, {"type": "node", "id": 1093387478, "lat": 39.9757786, "lon": 116.3337122}, {"type": "node", "id": 1093387481, "lat": 39.9397634, "lon": 116.3471886}, {"type": "node", "id": 1093387482, "lat": 40.0694622, "lon": 116.3305729}, {"type": "node", "id": 1093387485, "lat": 39.9664285, "lon": 116.4255784}, {"type": "node", "id": 1093387496, "lat": 40.0322632, "lon": 116.3139312}, {"type": "node", "id": 1093387499, "lat": 40.0694076, "lon": 116.330571}, {"type": "node", "id": 1093387500, "lat": 40.0414172, "lon": 116.4289288}, {"type": "node", "id": 1093387502, "lat": 40.0694999, "lon": 116.3305726}, {"type": "node", "id": 1093387504, "lat": 40.0694665, "lon": 116.329206}, {"type": "node", "id": 1093387508, "lat": 39.9647152, "lon": 116.3390322}, {"type": "node", "id": 1093387511, "lat": 40.0696211, "lon": 116.3125179}, {"type": "node", "id": 1093387518, "lat": 39.9562812, "lon": 116.4267655}, {"type": "node", "id": 1093387520, "lat": 39.9675188, "lon": 116.4255393}, {"type": "node", "id": 1093387521, "lat": 39.9397802, "lon": 116.3472595}, {"type": "node", "id": 1093387522, "lat": 39.9675259, "lon": 116.4256862}, {"type": "node", "id": 1093387526, "lat": 40.0692279, "lon": 116.3551939}, {"type": "node", "id": 1093387532, "lat": 39.9745233, "lon": 116.3340371}, {"type": "node", "id": 1093387534, "lat": 40.0417882, "lon": 116.427649}, {"type": "node", "id": 1093387535, "lat": 40.0694107, "lon": 116.3292047}, {"type": "node", "id": 1093387536, "lat": 39.9910013, "lon": 116.3317695}, {"type": "node", "id": 1093387539, "lat": 39.9658049, "lon": 116.3388987}, {"type": "node", "id": 1093387540, "lat": 40.0695171, "lon": 116.313863}, {"type": "node", "id": 1093387544, "lat": 39.9767117, "lon": 116.4300727}, {"type": "node", "id": 1093387547, "lat": 39.9921777, "lon": 116.3316296}, {"type": "node", "id": 1093387549, "lat": 39.9397899, "lon": 116.3472896}, {"type": "node", "id": 1093387555, "lat": 39.9408261, "lon": 116.346853}, {"type": "node", "id": 1093387557, "lat": 39.9941207, "lon": 116.4415655}, {"type": "node", "id": 1093387561, "lat": 40.069082, "lon": 116.3539442}, {"type": "node", "id": 1093387570, "lat": 40.0412954, "lon": 116.4288355}, {"type": "node", "id": 1093387572, "lat": 40.0695072, "lon": 116.3292057}, {"type": "node", "id": 1093387582, "lat": 39.9664359, "lon": 116.4257284}, {"type": "node", "id": 1093387584, "lat": 39.9562736, "lon": 116.4266572}, {"type": "node", "id": 1093387586, "lat": 39.9757505, "lon": 116.4294309}, {"type": "node", "id": 1093387596, "lat": 39.9408339, "lon": 116.3468848}, {"type": "node", "id": 1093387600, "lat": 39.940809, "lon": 116.3467874}, {"type": "node", "id": 1093387606, "lat": 39.9931096, "lon": 116.4407276}, {"type": "node", "id": 1093387608, "lat": 40.0690703, "lon": 116.3551958}, {"type": "node", "id": 1093387612, "lat": 40.0692832, "lon": 116.3551983}, {"type": "node", "id": 1093387613, "lat": 40.0691286, "lon": 116.3539465}, {"type": "node", "id": 1093387617, "lat": 39.9397581, "lon": 116.3471533}, {"type": "node", "id": 1093387619, "lat": 40.0413331, "lon": 116.4288594}, {"type": "node", "id": 1093387624, "lat": 39.975793, "lon": 116.4293279}, {"type": "node", "id": 1093387628, "lat": 39.9930523, "lon": 116.4408574}, {"type": "node", "id": 1093387629, "lat": 40.0322444, "lon": 116.3138479}, {"type": "node", "id": 1093387630, "lat": 40.0517171, "lon": 116.4044681}, {"type": "node", "id": 1093387631, "lat": 40.0312483, "lon": 116.3143381}, {"type": "node", "id": 1093387635, "lat": 39.9573487, "lon": 116.4265636}, {"type": "node", "id": 1093387638, "lat": 39.9941687, "lon": 116.4414021}, {"type": "node", "id": 1093387643, "lat": 40.0695694, "lon": 116.3292056}, {"type": "node", "id": 1093387644, "lat": 40.0511132, "lon": 116.4056479}, {"type": "node", "id": 1093387645, "lat": 40.0691221, "lon": 116.3551981}, {"type": "node", "id": 1093387648, "lat": 40.0692897, "lon": 116.3539466}, {"type": "node", "id": 1093387649, "lat": 39.9757892, "lon": 116.3338088}, {"type": "node", "id": 1093387650, "lat": 39.9408006, "lon": 116.3467523}, {"type": "node", "id": 1093387652, "lat": 40.0418239, "lon": 116.4276761}, {"type": "node", "id": 1093387655, "lat": 39.9921814, "lon": 116.3317255}, {"type": "node", "id": 1093387656, "lat": 39.9767444, "lon": 116.4299541}, {"type": "node", "id": 1093387658, "lat": 39.957334, "lon": 116.4264572}, {"type": "node", "id": 1093387660, "lat": 40.0511988, "lon": 116.405697}, {"type": "node", "id": 1093387661, "lat": 39.9745133, "lon": 116.3339408}, {"type": "node", "id": 1093387663, "lat": 40.0419106, "lon": 116.4277437}, {"type": "node", "id": 1093387667, "lat": 40.0695614, "lon": 116.3305725}, {"type": "node", "id": 1093985706, "lat": 39.8983368, "lon": 116.3680341, "tags": {"name": "\u5ba3\u6b66\u95e8", "name:en": "Xuanwumen", "name:ru": "\u0421\u044e\u0430\u043d\u044c\u0443\u043c\u044d\u043d\u044c", "name:zh": "\u5ba3\u6b66\u95e8", "public_transport": "stop_position", "railway": "stop", "subway": "yes"}}, {"type": "node", "id": 1094072326, "lat": 40.002543, "lon": 116.4110577, "tags": {"name": "\u5927\u5c6f\u8def\u4e1c", "name:en": "Datunlu East", "public_transport": "stop_position", "railway": "stop", "subway": "yes"}}, {"type": "node", "id": 1094073255, "lat": 40.0025371, "lon": 116.4110224, "tags": {"name": "\u5927\u5c6f\u8def\u4e1c", "name:en": "Datunlu East", "public_transport": "stop_position", "railway": "stop", "subway": "yes"}}, {"type": "node", "id": 1101163242, "lat": 39.8954458, "lon": 116.3110681}, {"type": "node", "id": 1101163260, "lat": 39.8951871, "lon": 116.3154553}, {"type": "node", "id": 1101163262, "lat": 39.8946787, "lon": 116.3201867}, {"type": "node", "id": 1101163279, "lat": 39.8949449, "lon": 116.3131296}, {"type": "node", "id": 1101163280, "lat": 39.8946753, "lon": 116.3171673}, {"type": "node", "id": 1101163285, "lat": 39.8944561, "lon": 116.3101326}, {"type": "node", "id": 1101163299, "lat": 39.8949698, "lon": 116.3147701}, {"type": "node", "id": 1101163300, "lat": 39.8946856, "lon": 116.3192884}, {"type": "node", "id": 1101163303, "lat": 39.8951768, "lon": 116.310128}, {"type": "node", "id": 1101163316, "lat": 39.8947197, "lon": 116.311471}, {"type": "node", "id": 1101163318, "lat": 39.895443, "lon": 116.3193107}, {"type": "node", "id": 1101163329, "lat": 39.8947129, "lon": 116.3131252}, {"type": "node", "id": 1101163333, "lat": 39.8949414, "lon": 116.3147705}, {"type": "node", "id": 1101163349, "lat": 39.8946753, "lon": 116.3196842}, {"type": "node", "id": 1101163351, "lat": 39.8946958, "lon": 116.311053}, {"type": "node", "id": 1101163362, "lat": 39.8954361, "lon": 116.3196886}, {"type": "node", "id": 1101163364, "lat": 39.8949312, "lon": 116.3171495}, {"type": "node", "id": 1101163380, "lat": 39.8949312, "lon": 116.3154597}, {"type": "node", "id": 1101163384, "lat": 39.8951734, "lon": 116.310795}, {"type": "node", "id": 1101163395, "lat": 39.895443, "lon": 116.3114887}, {"type": "node", "id": 1101163397, "lat": 39.8946958, "lon": 116.3107861}, {"type": "node", "id": 1101163412, "lat": 39.8951855, "lon": 116.314767}, {"type": "node", "id": 1101163413, "lat": 39.8944869, "lon": 116.3201777}, {"type": "node", "id": 1114082178, "lat": 39.9387896, "lon": 116.4441987, "tags": {"bus": "yes", "name": "\u5e78\u798f\u4e09\u6751", "name:zh": "\u5e78\u798f\u4e09\u6751", "public_transport": "stop_position"}}, {"type": "node", "id": 1114097898, "lat": 39.9323218, "lon": 116.4572469, "tags": {"bus": "yes", "highway": "bus_stop", "name": "\u957f\u8679\u6865\u4e1c", "public_transport": "platform"}}, {"type": "node", "id": 1114100902, "lat": 39.9319539, "lon": 116.4268918, "tags": {"name": "Dong Si Shi Tiao Line 2 Exit D", "railway": "subway_entrance", "ref": "D"}}, {"type": "node", "id": 1114100905, "lat": 39.9327602, "lon": 116.4270835, "tags": {"name": "Dong Si Shi Tiao Line 2 Exit A", "railway": "subway_entrance", "ref": "A"}}, {"type": "node", "id": 1189099811, "lat": 39.8925218, "lon": 116.3141448}, {"type": "node", "id": 1189099818, "lat": 39.8925168, "lon": 116.3130104}, {"type": "node", "id": 1189099821, "lat": 39.8925323, "lon": 116.3170581}, {"type": "node", "id": 1189099864, "lat": 39.8923165, "lon": 116.317057}, {"type": "node", "id": 1189099866, "lat": 39.8923046, "lon": 116.3133655}, {"type": "node", "id": 1189099880, "lat": 39.8923973, "lon": 116.3131549}, {"type": "node", "id": 1189133778, "lat": 39.892809, "lon": 116.3184027}, {"type": "node", "id": 1189133804, "lat": 39.8936934, "lon": 116.3126707}, {"type": "node", "id": 1189133809, "lat": 39.8933188, "lon": 116.3123445}, {"type": "node", "id": 1189133814, "lat": 39.8939972, "lon": 116.3189129}, {"type": "node", "id": 1189133818, "lat": 39.8929618, "lon": 116.312339}, {"type": "node", "id": 1189133821, "lat": 39.8933534, "lon": 116.3126901}, {"type": "node", "id": 1189133823, "lat": 39.8939193, "lon": 116.3187154}, {"type": "node", "id": 1189133826, "lat": 39.8931254, "lon": 116.318904}, {"type": "node", "id": 1189133832, "lat": 39.8927862, "lon": 116.3130349}, {"type": "node", "id": 1189133851, "lat": 39.8931641, "lon": 116.3187022}, {"type": "node", "id": 1189133854, "lat": 39.8928834, "lon": 116.3132996}, {"type": "node", "id": 1189133857, "lat": 39.8937662, "lon": 116.3189028}, {"type": "node", "id": 1189133862, "lat": 39.8929969, "lon": 116.3187489}, {"type": "node", "id": 1189133866, "lat": 39.8935946, "lon": 116.3189018}, {"type": "node", "id": 1189133869, "lat": 39.8935221, "lon": 116.3187283}, {"type": "node", "id": 1189133871, "lat": 39.8931499, "lon": 116.313051},